city,country,area,population,density,gp022,lon,lat,ktype,domain
Panama City,UnitedStates,104.0,56787.23058825731,546.031063348628,0.17333333333333334,-85.7142838248223,30.2487584210451,Cfa,NorthAm
Hagerstown,UnitedStates,62.0,59345.54543685913,957.1862167235344,0.10333333333333333,-77.75431878074126,39.64338315815783,Cfa,NorthAm
Holland,UnitedStates,69.0,60812.62209033966,881.3423491353574,0.115,-86.10761474654367,42.792910715692884,Dfb,NorthAm
Duluth,UnitedStates,82.0,61223.45871345699,746.6275452860608,0.13666666666666666,-92.16592028842233,46.74335851915503,Dfb,NorthAm
Kan'onji,Japan,62.0,61400.47260284424,990.3302032716813,0.10333333333333333,133.70082486098948,34.12810286347245,Cfa,EastAsia
Naples,UnitedStates,67.0,62098.488296985626,926.8431089102332,0.11166666666666666,-81.71806460896741,26.21002361362469,Aw,NorthAm
Mandurah,Australia,74.0,62493.33819580078,844.5045702135241,0.12333333333333334,115.7597308472788,-32.564639067340366,Csa,AustralAsia
Lorain,UnitedStates,67.0,64437.53615140915,961.7542709165544,0.11166666666666666,-82.20049112382378,41.35118454563841,Dfa,NorthAm
Lake Charles,UnitedStates,66.0,65139.63466644287,986.9641616127708,0.11,-93.20767148665738,30.22971257213377,Cfa,NorthAm
Deltona,UnitedStates,69.0,66132.41221427917,958.4407567286837,0.115,-81.297911151352,28.969886782841087,Cfa,NorthAm
Spring Hill,UnitedStates,68.0,66255.54077148438,974.3461878159467,0.11333333333333333,-82.47996402070748,28.531320861827037,Cfa,NorthAm
Biloxi,UnitedStates,109.0,67069.43573433161,615.3159241681799,0.18166666666666667,-88.9319041083673,30.44356198284093,Cfa,NorthAm
Longview,UnitedStates,78.0,67199.03984069824,861.5261518038236,0.13,-94.80068212586892,32.51298019645723,Cfa,NorthAm
Oshkosh,UnitedStates,85.0,68352.6639124928,804.1489872057977,0.14166666666666666,-88.61656650020329,43.92356958967059,Dfb,NorthAm
Wichita Falls,UnitedStates,73.0,70072.71070480347,959.9001466411434,0.12166666666666667,-98.58276715051744,33.93206120581123,Cfa,NorthAm
Kamisu,Japan,80.0,74337.81222486496,929.222652810812,0.13333333333333333,140.6417386452353,35.914838558733614,Cfa,EastAsia
Fort Smith,UnitedStates,85.0,75871.47507822514,892.6055891555899,0.14166666666666666,-94.37649545653134,35.35377498956122,Cfa,NorthAm
Sioux City,UnitedStates,69.0,77978.80622887611,1130.127626505451,0.115,-96.36798873305935,42.48071504403747,Dfa,NorthAm
Waterloo,UnitedStates,64.0,78087.967045784,1220.124485090375,0.10666666666666667,-92.38721014257243,42.52521275807743,Dfa,NorthAm
Murfreesboro,UnitedStates,62.0,78454.49406671524,1265.3950655921813,0.10333333333333333,-86.42323106702317,35.87681056454473,Cfa,NorthAm
Palm Coast,UnitedStates,93.0,79468.36929893494,854.4985946122036,0.155,-81.28193827117433,29.59032684132406,Cfa,NorthAm
Navarre,UnitedStates,117.0,80731.27681541443,690.0109129522601,0.195,-86.63532515154932,30.48291468883888,Cfa,NorthAm
Grand Junction,UnitedStates,71.0,82907.0702175498,1167.7052143316873,0.11833333333333333,-108.57570667246853,39.104172478072414,BSk,NorthAm
Abilene,UnitedStates,71.0,82919.59410762787,1167.8816071496883,0.11833333333333333,-99.72232599763306,32.40812635335425,Cfa,NorthAm
Tauranga,NewZealand,70.0,84583.7243821621,1208.3389197451727,0.11666666666666667,176.19832957941716,-37.70985318294199,Cfb,AustralAsia
Saint Cloud,UnitedStates,81.0,85328.0062122345,1053.4321754596851,0.135,-94.24320406888602,45.55818743655551,Dfb,NorthAm
Huntsville,UnitedStates,89.0,86467.06209009886,971.5400234842568,0.14833333333333334,-86.60702110800166,34.73534495872653,Cfa,NorthAm
Frederick,UnitedStates,68.0,87718.91857969761,1289.984096760259,0.11333333333333333,-77.4090789645133,39.43818604783379,Cfa,NorthAm
Knoxville,UnitedStates,75.0,87802.32149505615,1170.697619934082,0.125,-83.96000760468921,35.97091211671587,Cfa,NorthAm
Saginaw,UnitedStates,96.0,88296.17412662506,919.7518138190111,0.16,-83.96919880472434,43.44762657198057,Dfb,NorthAm
Roanoke,UnitedStates,88.0,88556.89931106567,1006.3284012621099,0.14666666666666667,-79.99648269225182,37.275580411046725,Cfa,NorthAm
Winston-Salem,UnitedStates,81.0,88908.10260009766,1097.630896297502,0.135,-80.30091664891286,36.082280232109234,Cfa,NorthAm
Sangyuan Wangjia,China,62.0,90511.43424934521,1459.8618427313745,0.10333333333333333,120.33516659117903,37.62445248952684,Dwa,EastAsia
Medford,UnitedStates,70.0,91010.15164875984,1300.145023553712,0.11666666666666667,-122.88939313790814,42.343919010346944,Csb,NorthAm
Topeka,UnitedStates,80.0,94598.08413505554,1182.4760516881943,0.13333333333333333,-95.71959283912246,39.05561815271938,Cfa,NorthAm
Lakeland,UnitedStates,82.0,96592.23384475708,1177.9540712775254,0.13666666666666666,-81.88724673176908,28.013539719177977,Cfa,NorthAm
Mons,Belgium,62.0,96913.05590820312,1563.1138049710182,0.10333333333333333,3.864077446154635,50.47276808112786,Cfb,Euro
Kortrijk,Belgium,65.0,97709.14920043945,1503.217680006761,0.10833333333333334,3.2989253024192613,50.84625065648342,Cfb,Euro
Olympia,UnitedStates,84.0,97711.90055847168,1163.2369114103772,0.14,-122.85415033746432,46.997008127201035,Csb,NorthAm
Charleston,UnitedStates,101.0,100422.02493242174,994.2774745784332,0.16833333333333333,-80.03631557211143,32.89645042265826,Cfa,NorthAm
Pueblo,UnitedStates,86.0,100512.28142559528,1168.7474584371544,0.14333333333333334,-104.62174114952664,38.27326916647675,BSk,NorthAm
Waco,UnitedStates,81.0,101897.35548684001,1257.9920430474076,0.135,-97.2183430863984,31.535819451038485,Cfa,NorthAm
Trois-Rivières,Canada,66.0,102836.7323524952,1558.1323083711393,0.11,-72.60762875932917,46.39208280413521,Dfb,NorthAm
York,UnitedStates,71.0,104466.91616821289,1471.3650164537028,0.11833333333333333,-76.74822137171144,39.914576491853005,Cfa,NorthAm
Kalamazoo,UnitedStates,103.0,111051.80704212189,1078.172883904096,0.17166666666666666,-85.59382933357766,42.278293715039304,Dfa,NorthAm
Ponce,PuertoRico,62.0,111468.4713704288,1797.878570490787,0.10333333333333333,-66.60426579527768,18.021910901710758,Am,CentralAm
Huarong,China,65.0,218462.92907714844,3360.9681396484375,0.10833333333333334,112.58384980231934,29.52802539485255,Cfa,EastAsia
Greeley,UnitedStates,65.0,112729.31357192993,1734.297131875845,0.10833333333333334,-104.75763390993274,40.4063597231118,BSk,NorthAm
Yonago,Japan,75.0,112806.42340183258,1504.0856453577678,0.125,133.32851835708203,35.434390553568164,Cfa,EastAsia
Hikone,Japan,67.0,113436.70446777344,1693.0851413100513,0.11166666666666666,136.22220585025272,35.20497230293533,Cfa,EastAsia
Evansville,UnitedStates,103.0,114771.3380279541,1114.2848352228555,0.17166666666666666,-87.5601277384857,38.01456566048555,Cfa,NorthAm
Fayetteville,UnitedStates,125.0,115034.6951637268,920.2775613098145,0.20833333333333334,-78.96172324287814,35.03960196944891,Cfa,NorthAm
Lawrence,UnitedStates,92.0,192213.53910827637,2089.277599003004,0.15333333333333332,-71.09885837934495,42.77815478120151,Dfa,NorthAm
Lafayette,UnitedStates,170.0,213178.6861782074,1253.992271636514,0.2833333333333333,-86.81760620781958,40.43297372773511,Dfa,NorthAm
New Bedford,UnitedStates,87.0,116239.34959077835,1336.0844780549235,0.145,-70.86568279885697,41.73300198084589,Cfb,NorthAm
Lancaster,UnitedStates,75.0,116932.46826171875,1559.0995768229166,0.125,-76.27317621556544,40.06937499376155,Cfa,NorthAm
Tomakomai,Japan,61.0,117180.87746429443,1920.9979912179415,0.10166666666666667,141.6534186516133,42.66825171319083,Dfb,EastAsia
Willemstad,Curacao,100.0,117202.44059562683,1172.0244059562683,0.16666666666666666,-68.9169038459578,12.132142041424625,Aw,CentralAm
Bloomington,UnitedStates,124.0,191769.9408683777,1546.5317811965942,0.20666666666666667,-88.98720954278146,40.47116415625567,Dfa,NorthAm
Peoria,UnitedStates,126.0,117438.34634417295,932.0503678108964,0.21,-89.60825322107195,40.7084941722384,Dfa,NorthAm
Visalia,UnitedStates,72.0,117576.33564424515,1633.004661725627,0.12,-119.31738190098771,36.39591681971021,BSk,NorthAm
Youngstown,UnitedStates,133.0,117697.54641103745,884.9439579777252,0.22166666666666668,-80.66249871276217,41.09117595936352,Cfa,NorthAm
Mobile,UnitedStates,123.0,118578.67887735367,964.0542998158835,0.205,-88.13509381339655,30.65455232178004,Cfa,NorthAm
Massa,Italy,64.0,119351.43657159805,1864.8661964312196,0.10666666666666667,10.085563936723652,44.05380176532345,Cfb,Euro
KwaMhlanga,SouthAfrica,61.0,121924.38944163918,1998.7604826498227,0.10166666666666667,28.75968457139153,-25.39412605765588,BSh,Africa
Odense,Denmark,65.0,124557.38848876953,1916.267515211839,0.10833333333333334,10.433248842455011,55.3617056664084,Cfb,Euro
Ningjin,China,84.0,202178.5662841797,2406.887693859282,0.14,114.92554819652294,37.62485543648584,BSk,EastAsia
Kennewick,UnitedStates,85.0,126972.04313910007,1493.788742812942,0.14166666666666666,-119.2355748817373,46.24075865054246,BWk,NorthAm
Dunkirk,France,74.0,127528.59340667725,1723.3593703605034,0.12333333333333334,2.3687437716667903,50.93751952528348,Cfb,Euro
Hamilton,NewZealand,64.0,129694.85997390747,2026.4821870923042,0.10666666666666667,175.2880915497046,-37.82096641628576,Cfb,AustralAsia
Bridgetown,Barbados,65.0,130116.56953430176,2001.7933774507962,0.10833333333333334,-59.56663647545046,13.127279544454641,Af,CentralAm
Fort Collins,UnitedStates,85.0,130166.54818725586,1531.3711551441866,0.14166666666666666,-105.02493021139227,40.564811309643694,BSk,NorthAm
Iizuka,Japan,72.0,130223.70275878906,1808.6625383165147,0.12,130.75944553565472,33.628115792023586,Cfa,EastAsia
Champaign,UnitedStates,83.0,131654.14229488373,1586.1944854805267,0.13833333333333334,-88.26395881525028,40.11594633637935,Dfa,NorthAm
Sioux Falls,UnitedStates,95.0,131671.8410154581,1386.0193791100853,0.15833333333333333,-96.67380030345751,43.52836808537104,Dfa,NorthAm
Barrie,Canada,76.0,131835.32205963135,1734.6752902583073,0.12666666666666668,-79.71668988515339,44.3715915761339,Dfb,NorthAm
Mafikeng,SouthAfrica,65.0,132951.83905029297,2045.4129084660456,0.10833333333333334,25.605628528440217,-25.870108973683298,BSh,Africa
Niihama,Japan,101.0,134067.44060972333,1327.4004020764687,0.16833333333333333,133.20833350257334,33.92995823844957,Cfa,EastAsia
Shunan,Japan,65.0,137818.41574931145,2120.283319220176,0.10833333333333334,131.85373335582005,34.03764310857772,Cfa,EastAsia
Savannah,UnitedStates,139.0,139465.43836450577,1003.3484774424876,0.23166666666666666,-81.15545531285032,32.110285683655036,Cfa,NorthAm
Little Rock,UnitedStates,144.0,141633.98174130917,983.5693176479804,0.24,-92.2575899388052,34.7864902174152,Cfa,NorthAm
Luanzhou,China,66.0,142094.6536102295,2152.949297124689,0.11,118.73033127555739,39.74083476998717,Dwa,EastAsia
Chalus,Iran,73.0,142937.2975883484,1958.0451724431286,0.12166666666666667,51.43946983218415,36.65184831463852,Csa,CentralAsia
Rijeka,Croatia,64.0,143702.3172302246,2245.3487067222595,0.10666666666666667,14.406996621965376,45.358057557762606,Cfa,Euro
Montgomery,UnitedStates,154.0,143898.0401711464,934.4028582541973,0.25666666666666665,-86.28992347639493,32.42426215365398,Cfa,NorthAm
Geelong,Australia,96.0,144531.30849671364,1505.5344635074337,0.16,144.31106521642693,-38.189373478206925,Cfb,AustralAsia
Erie,UnitedStates,110.0,144602.83500671387,1314.5712273337624,0.18333333333333332,-80.12598664509643,41.997817018019596,Cfa,NorthAm
Flint,UnitedStates,151.0,144648.6952199936,957.9383789403549,0.25166666666666665,-83.69135865546318,43.00024363394326,Dfb,NorthAm
Oldenburg,Germany,62.0,144960.81927490234,2338.0777302403603,0.10333333333333333,8.171938326676054,53.15964542567474,Cfb,Euro
Saarbruecken,Germany,65.0,146108.81883311272,2247.827982047888,0.10833333333333334,6.940693633804017,49.28228286147332,Cfb,Euro
College Station,UnitedStates,90.0,146758.2114868164,1630.64679429796,0.15,-96.29064740264302,30.597389225732577,Cfa,NorthAm
Trondheim,Norway,63.0,147468.11251831055,2340.763690766834,0.105,10.366426728333588,63.32434002570718,Cfb,Euro
Yingshan,China,64.0,353642.8582763672,5525.669660568237,0.10666666666666667,106.56599273055951,31.075619055710156,Cfa,EastAsia
Kuala Terengganu,Malaysia,69.0,147995.93632125854,2144.8686423370805,0.115,103.1087159942418,5.30989944980047,Af,SouthEastAsia
Bergen,Norway,80.0,148005.05797427893,1850.0632246784867,0.13333333333333333,5.283618637703637,60.37505020771249,Cfb,Euro
Cedar Rapids,UnitedStates,136.0,148181.0608023554,1089.5666235467309,0.22666666666666666,-91.62318663490171,42.02585496583633,Dfa,NorthAm
Columbia,UnitedStates,134.0,148682.83293914795,1109.573380142895,0.22333333333333333,-81.06301077443707,34.026435205192875,Cfa,NorthAm
Ann Arbor,UnitedStates,93.0,149114.66008377075,1603.3834417609758,0.155,-83.73166222689429,42.24913861721823,Dfa,NorthAm
Wollongong,Australia,116.0,150185.48600835353,1294.7024655892546,0.19333333333333333,150.86059988514413,-34.492766292081974,Cfb,AustralAsia
Lübeck,Germany,63.0,150412.5030517578,2387.5000484406,0.105,10.632993958558943,53.882059791818186,Cfb,Euro
Brownsville,UnitedStates,78.0,152649.017868042,1957.038690615923,0.13,-97.49423893048069,26.02889945212709,Cfa,NorthAm
Ube,Japan,99.0,152721.87084579468,1542.6451600585322,0.165,131.24999000641225,34.00315031910778,Cfa,EastAsia
Dundee,UnitedKingdom,62.0,153007.0211544037,2467.8551799097368,0.10333333333333333,-2.9902449258038484,56.48390324757407,Cfb,Euro
Angarsk,Russia,69.0,154020.0050354004,2232.1739860202956,0.115,103.8852941012404,52.522134354463184,Dwc,EastAsia
Hemet,UnitedStates,77.0,155147.2377090454,2014.8991910265638,0.12833333333333333,-116.91695687028869,33.80292673742497,Csb,NorthAm
Mestre,Italy,64.0,156228.15869716555,2441.0649796432117,0.10666666666666667,12.196650655470624,45.5041658613982,Cfa,Euro
Siyang,China,68.0,158298.8006591797,2327.9235391055836,0.11333333333333333,118.6896082786157,33.71370694659711,Cfa,EastAsia
Nakhon Ratchasima,Thailand,63.0,159579.10049438477,2533.0015951489645,0.105,102.0813919464527,14.959304382800202,Aw,EastAsia
Mary,Turkmenistan,68.0,159946.4744091034,2352.154035427991,0.11333333333333333,61.86014400332801,37.59121981627931,BWk,CentralAsia
Stavanger,Norway,76.0,161284.1770324707,2122.1602241114565,0.12666666666666668,5.709206857777545,58.88267743880341,Cfb,Euro
Fukui,Japan,64.0,161761.85607910156,2527.529001235962,0.10666666666666667,136.2247806696034,36.05680764117468,Cfa,EastAsia
Songkhla,Thailand,68.0,162380.1423034668,2387.9432691686293,0.11333333333333333,100.57796540373602,7.147307184186376,Am,SouthEastAsia
龙田镇,China,67.0,162936.7693862915,2431.8920803924107,0.11166666666666666,119.43011390439518,25.579475550634886,Cfa,EastAsia
Amarillo,UnitedStates,121.0,163844.6381599903,1354.0879186776058,0.20166666666666666,-101.85217084879292,35.16250320561053,BSk,NorthAm
Sanchahe,China,69.0,164477.06170082092,2383.7255318959556,0.115,103.69540008809884,25.032357139521206,Cwb,EastAsia
Caen,France,68.0,164787.62479019165,2423.347423385171,0.11333333333333333,-0.3711319460100968,49.184074398711516,Cfb,Euro
Jizhou,China,67.0,233995.8348388672,3492.475146848764,0.11166666666666666,117.37142083270926,40.041798598170686,Dwa,EastAsia
Santa Rosa,UnitedStates,80.0,165225.23852539062,2065.315481567383,0.13333333333333333,-122.75851152573057,38.48093054200528,Csb,NorthAm
Green Bay,UnitedStates,163.0,166433.1691403538,1021.0623873641338,0.27166666666666667,-88.02826821406619,44.51386174315089,Dfb,NorthAm
Melitopol,Ukraine,63.0,166661.95111083984,2645.4277954101562,0.105,35.36981394074983,46.82386238590323,Dfa,Euro
Killeen,UnitedStates,123.0,167100.6445159912,1358.5418253332618,0.205,-97.65717844967371,31.036722923010245,Cfa,NorthAm
Greensboro,UnitedStates,165.0,167975.0283768177,1018.0304750110164,0.275,-79.80188331732442,36.06184553683635,Cfa,NorthAm
Chemnitz,Germany,66.0,168020.5181427002,2545.7654264045486,0.11,12.892020518555,50.82871099831091,Cfb,Euro
Rostock,Germany,80.0,168453.09365463257,2105.663670682907,0.13333333333333333,12.127169562471817,54.09240569542723,Cfb,Euro
Laem Chabang,Thailand,71.0,168553.94261169434,2373.9991917140046,0.11833333333333333,100.95095671271741,13.105538254519534,Aw,SouthEastAsia
Reutlingen,Germany,67.0,169799.5598449707,2534.321788730906,0.11166666666666666,9.181872064742235,48.4964485209542,Cfb,Euro
Maastricht,Netherlands,69.0,169894.39880371094,2462.2376638218975,0.115,5.79866230767189,50.9188006594052,Cfb,Euro
Fairfield,UnitedStates,74.0,170287.68670654297,2301.184955493824,0.12333333333333334,-122.01796398527478,38.31790464577434,Csb,NorthAm
Netanya,Israel,61.0,170806.97324371338,2800.114315470711,0.10166666666666667,34.91280966184187,32.34143233690056,Csa,Euro
Daytona Beach,UnitedStates,182.0,172929.99268500705,950.1647949725661,0.30333333333333334,-81.0323387483381,29.147326925541144,Cfa,NorthAm
Canton,UnitedStates,180.0,172935.00827407837,960.7500459671021,0.3,-81.45084259272873,40.756863693477776,Cfa,NorthAm
Shreveport,UnitedStates,182.0,173970.03019607067,955.8792867915971,0.30333333333333334,-93.787069768075,32.51928745702284,Cfa,NorthAm
Bobai,China,69.0,174688.32708740234,2531.7148853246717,0.115,109.97925677045056,22.250851677124846,Cfa,EastAsia
Fargo,UnitedStates,146.0,174773.7528641969,1197.0804990698418,0.24333333333333335,-96.82779922624458,46.872391844865014,Dfb,NorthAm
Bilasipara,India,63.0,176414.07049560547,2800.223341200087,0.105,90.24038154105696,26.23511914708737,Cwa,CentralAsia
Rugao,China,67.0,176576.6180114746,2635.471910619024,0.11166666666666666,120.58824134569535,32.38642378824179,Cfa,EastAsia
Angers,France,71.0,176838.51947021484,2490.683372819927,0.11833333333333333,-0.5380471954232093,47.44979257819667,Cfb,Euro
Częstochowa,Poland,71.0,177137.8267211914,2494.898967904104,0.11833333333333333,19.098319998904667,50.78339280446884,Dfb,Euro
Phuthaditjhaba,SouthAfrica,88.0,178398.38819885254,2027.2544113505971,0.14666666666666667,28.820108169277557,-28.55432649822175,Cwc,Africa
Orléans,France,68.0,179869.0827484131,2645.1335698296043,0.11333333333333333,1.8933974399350153,47.9086859624241,Cfb,Euro
Brunswick,Germany,76.0,180612.17318725586,2376.4759629902087,0.12666666666666668,10.474997154445711,52.25949135110287,Cfb,Euro
Ras Al Khaimah,UnitedArabEmirates,67.0,181690.9758901596,2711.80561030089,0.11166666666666666,55.96406937715876,25.771010361305233,BWh,WestAsia
Fukushima,Japan,68.0,181818.55154418945,2673.8022285910215,0.11333333333333333,140.4998386439454,37.75879850532463,Dfb,EastAsia
Taihe,China,79.0,352996.59159088135,4468.3112859605235,0.13166666666666665,115.61684248458546,33.18139374666843,Cwa,EastAsia
钢城区,China,77.0,183531.72048950195,2383.5288375259993,0.12833333333333333,117.82609990456119,36.082413631969054,Dwa,EastAsia
Novorossiysk,Russia,81.0,184346.63150024414,2275.8843395091867,0.135,37.75520493641707,44.76513348170467,Cfa,Euro
Reykjavik,Iceland,82.0,184356.80647277832,2248.2537374729063,0.13666666666666666,-21.867079997399934,64.13381148857715,ET,Euro
Lansing,UnitedStates,143.0,184746.37297785282,1291.932678166803,0.23833333333333334,-84.54646839742578,42.71053627613008,Dfb,NorthAm
Bizerte,Tunisia,62.0,184889.92471313477,2982.0955598892706,0.10333333333333333,9.869526316495731,37.262076914152075,Csa,Euro
Halle (Saale),Germany,64.0,185075.70343017578,2891.8078660964966,0.10666666666666667,11.974399043313616,51.471762369653185,Cfb,Euro
Jerez,Spain,66.0,185823.1309814453,2815.5019845673532,0.11,-6.137741253587875,36.6606960051677,Csa,Euro
Port Arthur,UnitedStates,250.0,186412.994008556,745.651976034224,0.4166666666666667,-94.08707203566,30.100329210458533,Cfa,NorthAm
Ostrava,CzechRepublic,72.0,186519.591796875,2590.5498860677085,0.12,18.20790206013645,49.78467822613292,Cfb,Euro
Aomori,Japan,82.0,187436.1650505066,2285.8068908598366,0.13666666666666666,140.72778569821006,40.82206837909097,Cfa,EastAsia
Le Havre,France,96.0,187642.961479187,1954.6141820748646,0.16,0.28565923863887605,49.495212753321425,Cfb,Euro
Xinyi,China,86.0,373966.9648742676,4348.453079933344,0.14333333333333334,110.93327177434368,22.336486995756083,Cfa,EastAsia
Reading,UnitedStates,114.0,188491.88569259644,1653.4375937947057,0.19,-75.94811175036753,40.3341986182323,Cfa,NorthAm
Mulhouse,France,73.0,189297.02843856812,2593.109978610522,0.12166666666666667,7.317247779711008,47.73731519725086,Cfb,Euro
Sevastopol,Ukraine,87.0,189597.76047706604,2179.284603184667,0.145,33.58288574109513,44.584524431336895,Cfb,Euro
Heerlen,Netherlands,95.0,189874.2409286499,1998.6762203015778,0.15833333333333333,5.958777741667759,50.88823087299124,Cfb,Euro
Clermont-Ferrand,France,70.0,191310.57678222656,2733.0082397460938,0.11666666666666667,3.141507650641313,45.794015230331865,Cfb,Euro
Karaganda,Kazakhstan,69.0,191771.88592004776,2779.302694493446,0.115,73.10868357143771,49.82188842370281,Dfb,CentralAsia
Mönchengladbach,Germany,72.0,192285.3359222412,2670.6296655866836,0.12,6.3927503743164635,51.14849717466496,Cfb,Euro
Changge,China,79.0,192589.8625640869,2437.8463615707205,0.13166666666666665,113.77066666400579,34.220865877704476,Cwa,EastAsia
Taraz,Kazakhstan,64.0,192656.0619277954,3010.2509676218033,0.10666666666666667,71.36558256423281,42.91497052640239,Dsa,CentralAsia
Koblenz,Germany,99.0,193128.48373413086,1950.7927649912208,0.165,7.549723315738598,50.385166873716074,Cfb,Euro
Komsomolsk-on-Amur,Russia,62.0,193336.9454650879,3118.3378300820627,0.10333333333333333,137.02050984102297,50.56522663202558,Dwb,EastAsia
Magdeburg,Germany,78.0,193705.5512084961,2483.404502673027,0.13,11.631218885498605,52.14278517248997,Cfb,Euro
Horlivka,Ukraine,96.0,195806.0240020752,2039.64608335495,0.16,38.02895105078543,48.336064264253,Dfb,Euro
Tilburg,Netherlands,63.0,196360.5260925293,3116.833747500465,0.105,5.079487801178602,51.54968203456837,Cfb,Euro
Birmingham,UnitedStates,221.0,196387.76703873277,888.6324300395148,0.36833333333333335,-86.787684092606,33.53195205017808,Cfa,NorthAm
Pensacola,UnitedStates,290.0,196818.9243901074,678.6859461727842,0.48333333333333334,-87.25811586395145,30.490117036284648,Cfa,NorthAm
Oskemen,Kazakhstan,62.0,197280.57843017578,3181.944813389932,0.10333333333333333,82.585912861914,49.97512160784668,Dfb,CentralAsia
Pingtan,China,79.0,197496.79441070557,2499.9594229203235,0.13166666666666665,119.78641966500929,25.495302414503325,Cfa,EastAsia
Galle,SriLanka,70.0,197578.4589996338,2822.549414280483,0.11666666666666667,80.22735664554321,6.06457237675703,Af,WestAsia
Bern,Switzerland,67.0,197760.9369506836,2951.655775383337,0.11166666666666666,7.43602167270525,46.97052468471754,Cfb,Euro
Taiping,Malaysia,65.0,198017.91723632812,3046.4294959435097,0.10833333333333334,100.71158540835167,4.852852127995735,Af,SouthEastAsia
Regina,Canada,95.0,198023.38195490837,2084.4566521569304,0.15833333333333333,-104.62275488834781,50.502505881877354,Dfb,NorthAm
Margao,India,82.0,198273.26524353027,2417.966649311345,0.13666666666666666,73.96273568221315,15.250389262329213,Aw,WestAsia
Messina,Italy,62.0,198553.0534157753,3202.4686034802467,0.10333333333333333,15.51224781167244,38.19379462388737,Csa,Euro
Phan Rang - Tháp Chàm,Vietnam,61.0,198679.32946395874,3257.0381879337497,0.10166666666666667,108.99531331659772,11.565926985830918,Aw,SouthEastAsia
Newcastle,Australia,133.0,198971.5095075369,1496.0263872747134,0.22166666666666668,151.63669886467915,-32.89810344735296,Cfa,AustralAsia
Appleton,UnitedStates,220.0,199014.36969280243,904.6107713309201,0.36666666666666664,-88.3609781762619,44.26817129410586,Dfb,NorthAm
UNNAMED,Sudan,97.0,1440846.0668640137,14854.083163546533,0.16166666666666665,25.579076392790135,12.43750711082112,BSh,Africa
Zhuozhou,China,73.0,199207.16833496094,2728.865319656999,0.12166666666666667,116.00062073159476,39.5053200666653,Cwa,EastAsia
Santa Clarita,UnitedStates,114.0,199622.21037772298,1751.072020857219,0.19,-118.56827315093922,34.42869858058387,Csb,NorthAm
Ganyu,China,73.0,199916.26206970215,2738.578932461673,0.12166666666666667,119.11725129513854,34.84605778342226,Cwa,EastAsia
Shangcai,China,77.0,199930.89973068237,2596.505191307563,0.12833333333333333,114.27290431647118,33.257898814099235,Cfa,EastAsia
Yongcheng,China,70.0,200000.3803100586,2857.1482901436943,0.11666666666666667,116.40965036235444,33.94873853058226,Cwa,EastAsia
梁山县,China,72.0,200489.53021240234,2784.576808505588,0.12,116.12528024476265,35.75321733565708,Cwa,EastAsia
Salem,UnitedStates,115.0,200973.43986797333,1747.5951292867246,0.19166666666666668,-123.0093378671993,44.94778340697106,Csb,NorthAm
Qabilat alturki,Libya,67.0,201061.31991577148,3000.915222623455,0.11166666666666666,14.330483044420737,32.585323122320496,BSh,Euro
Milton Keynes,UnitedKingdom,74.0,201467.72060775757,2722.536764969697,0.12333333333333334,-0.8210622320945851,52.03611121147779,Cfb,Euro
Rockford,UnitedStates,180.0,201697.8815999031,1120.5437866661284,0.3,-89.05180746046067,42.25979140183439,Dfa,NorthAm
Linz,Austria,69.0,202651.51983642578,2936.9785483539968,0.115,14.326390921741254,48.27745538703008,Cfb,Euro
Fort Wayne,UnitedStates,202.0,202795.98413848877,1003.9405155370731,0.33666666666666667,-85.12032498879564,41.099703460630515,Dfa,NorthAm
Alor Setar,Malaysia,65.0,203261.76948547363,3127.1041459303638,0.10833333333333334,100.37644270550811,6.130821417404077,Am,SouthEastAsia
Araraquara,Brazil,61.0,203380.84488677979,3334.112211258685,0.10166666666666667,-48.148808023137555,-21.760120637579906,Cfa,SouthAm
Purwodadi,Indonesia,74.0,203807.29455566406,2754.1526291305954,0.12333333333333334,110.91337805914586,-7.0781758072936185,Am,AustralAsia
Kurgan,Russia,69.0,203888.1317138672,2954.9004596212635,0.115,65.29276288979636,55.473343881145055,Dfb,CentralAsia
Ishurdi,Bangladesh,72.0,205162.04539489746,2849.472852706909,0.12,89.09352005334358,24.083604478653662,Aw,CentralAsia
Yamagata,Japan,80.0,206358.28973388672,2579.478621673584,0.13333333333333333,140.3303611787566,38.30603254065723,Cfa,EastAsia
Pingdu,China,79.0,206573.13705444336,2614.8498361321945,0.13166666666666665,119.94767041916246,36.76886988078605,Cwa,EastAsia
Santander,Spain,66.0,206816.0313796997,3133.576233025753,0.11,-3.8178510783380184,43.40181410258793,Cfb,Euro
Chingola,Zambia,61.0,206857.45056152344,3391.10574691022,0.10166666666666667,27.86428174296645,-12.540168752067713,Cwa,Africa
Lubbock,UnitedStates,138.0,206987.61501169205,1499.9102537079134,0.23,-101.81197061541636,33.59690671127984,BSk,NorthAm
Münster,Germany,78.0,207455.32133483887,2659.6836068569087,0.13,7.580634085447942,51.96522795084721,Cfb,Euro
Salalah,Oman,66.0,208005.22076416016,3151.5942540024266,0.11,54.08613674771712,17.01789287279982,BWh,WestAsia
Dijon,France,69.0,208040.14096069336,3015.0745066767154,0.115,5.067042569455909,47.28192572889298,Cfb,Euro
Paramaribo,Suriname,86.0,208315.78900909424,2422.276616384817,0.14333333333333334,-55.194881130016945,5.799777196410273,Af,CentralAm
Oral,Kazakhstan,64.0,208766.4167327881,3261.975261449814,0.10666666666666667,51.40419221866505,51.226113701815194,Dfa,CentralAsia
Aarhus,Denmark,83.0,209180.70584106445,2520.249467964632,0.13833333333333334,10.019297465693585,56.20216926719652,Cfb,Euro
Al Zawiyah,Libya,87.0,209369.50048828125,2406.5459826239226,0.145,12.666837438402974,32.74808458679803,BSh,Euro
Worcester,UnitedStates,127.0,209662.1347579956,1650.882950850359,0.21166666666666667,-71.8667895987603,42.22131131238282,Dfb,NorthAm
Halifax,Canada,105.0,209670.08933532238,1996.857993669737,0.175,-63.64153941253576,44.699510033055994,Dfb,NorthAm
Kaluga,Russia,74.0,209775.96685791016,2834.810362944732,0.12333333333333334,36.21536173245703,54.55119248660339,Dfb,Euro
Kiel,Germany,80.0,209785.5782775879,2622.3197284698485,0.13333333333333333,10.091891476917716,54.328460440729145,Cfb,Euro
嘉祥县,China,78.0,210649.3533630371,2700.6327354235527,0.13,116.34696607369715,35.413819376337,Cwa,EastAsia
Changyuan,China,73.0,210871.50038146973,2888.6506901571197,0.12166666666666667,114.6628347421142,35.18733984870283,Cwa,EastAsia
Tours,France,75.0,211590.54708862305,2821.207294514974,0.125,0.6978342221709631,47.38737435309663,Cfb,Euro
Suva,Fiji,64.0,211650.69631958008,3307.0421299934387,0.10666666666666667,178.46558181272246,-18.098135435325222,Af,SouthEastAsia
Wuwei,China,115.0,325676.3602819443,2831.968350277776,0.19166666666666668,102.60807094915373,37.95477104735689,BSk,EastAsia
Akita,Japan,78.0,212354.7463684082,2722.496748312926,0.13,140.11504657317164,39.7087921332307,Cfa,EastAsia
Pescara,Italy,81.0,212409.5714149475,2622.340387838858,0.135,14.172010923667386,42.43893885672751,Csa,Euro
Northampton,UnitedKingdom,65.0,212525.96839904785,3269.6302830622744,0.10833333333333334,-0.9111115636807903,52.23455284609883,Cfb,Euro
Kremenchuk,Ukraine,72.0,213125.37830543518,2960.0746986865997,0.12,33.40449444235855,49.04486637238414,Dfb,Euro
Nassau,Bahamas,106.0,213690.68881225586,2015.949894455244,0.17666666666666667,-77.37150931429962,25.03884167338023,Aw,CentralAm
Jaffna,SriLanka,77.0,214343.9649963379,2783.687857095297,0.12833333333333333,80.03690317199552,9.711626854848072,Aw,WestAsia
Sumy,Ukraine,63.0,214375.5899658203,3402.787142314608,0.105,34.80761844375988,50.91548057304532,Dfb,Euro
Port St. Lucie,UnitedStates,227.0,214419.66606974602,944.5800267389692,0.37833333333333335,-80.32728187425384,27.282855067213525,Am,NorthAm
Blackpool,UnitedKingdom,75.0,214435.65840148926,2859.142112019857,0.125,-2.973582529489009,53.83292862707031,Cfb,Euro
Binyang,China,72.0,214555.13777208328,2979.9324690567123,0.12,108.80825535163878,23.240048327404956,Cfa,EastAsia
Ciudad del Este,Brazil,77.0,214603.7055130005,2787.061110558448,0.12833333333333333,-54.53954375610881,-25.518020444003422,Cfa,SouthAm
St. Catharines,Canada,135.0,215143.5950512886,1593.6562596391748,0.225,-79.19496623489175,43.06024647071615,Dfb,NorthAm
Blumenau,Brazil,79.0,215193.8316707611,2723.9725527944443,0.13166666666666665,-49.103951385539744,-26.88243968916953,Cfa,SouthAm
Orsk,Russia,86.0,215805.99659729004,2509.372053456861,0.14333333333333334,58.46618531176402,51.22299086958314,Dfb,CentralAsia
Yakutsk,Russia,90.0,215983.87005615234,2399.8207784016927,0.15,129.7114482261213,62.04143232311083,Dfd,EastAsia
Nuevo Laredo,UnitedStates,97.0,216996.44924163818,2237.076796305548,0.16166666666666665,-99.46704268083779,27.51251499332618,BSh,NorthAm
Juxian,China,76.0,217078.28619384766,2856.293239392732,0.12666666666666668,118.83531900599992,35.582757257253995,Cwa,EastAsia
Vanderbijlpark,SouthAfrica,72.0,217223.4746837616,3016.992703941133,0.12,27.866721770200208,-26.685700402773982,Cwb,Africa
Tarragona,Spain,65.0,217388.93621826172,3344.445172588642,0.10833333333333334,1.183086749353795,41.15467241484983,Csa,Euro
Padua,Italy,81.0,217448.48331475258,2684.5491767253407,0.135,11.907400950511871,45.41793223792342,Cfa,Euro
Lutsk,Ukraine,66.0,218316.13090515137,3307.820165229566,0.11,25.35774353628877,50.77452423767592,Dfb,Euro
Koriyama,Japan,64.0,218390.28564453125,3412.348213195801,0.10666666666666667,140.36960533065388,37.40065458190767,Cfa,EastAsia
Split,Croatia,75.0,218496.82402038574,2913.2909869384766,0.125,16.4751269463965,43.53485616207176,Csa,Euro
Hammamet,Tunisia,68.0,218817.89529418945,3217.910224914551,0.11333333333333333,10.662880341517905,36.44042344254155,Csa,Euro
Eugene,UnitedStates,147.0,219332.82491207123,1492.0600334154506,0.245,-123.09086153977317,44.03377515139181,Csb,NorthAm
Perm,Russia,152.0,219586.7168740034,1444.6494531184435,0.25333333333333335,56.219495137344644,58.00607969772821,Dfc,CentralAsia
Hakodate,Japan,82.0,221759.5520181656,2704.3847807093366,0.13666666666666666,140.73598295865366,41.81928570408401,Cfa,EastAsia
Morioka,Japan,73.0,222068.74555969238,3042.037610406745,0.12166666666666667,141.1283103625042,39.69339986863158,Dfa,EastAsia
Swansea,UnitedKingdom,116.0,222322.2388279438,1916.5710243788258,0.19333333333333333,-3.915641314615484,51.69471722765629,Cfb,Euro
Kassel,Germany,85.0,222868.6219329834,2621.9837874468635,0.14166666666666666,9.472275724995159,51.30244196112283,Cfb,Euro
Arkhangelsk,Russia,88.0,223192.2709197998,2536.275805906816,0.14666666666666667,40.58228078111736,64.53905197724093,Dfc,Euro
Kamianske,Ukraine,73.0,223589.18687438965,3062.865573621776,0.12166666666666667,34.62991580613403,48.48563278242597,Dfb,Euro
Preston,UnitedKingdom,79.0,224512.49195861816,2841.930277957192,0.13166666666666665,-2.731756681558571,53.74625043631343,Cfb,Euro
Wendeng,China,62.0,224736.29846191406,3624.779007450227,0.10333333333333333,122.05512772341511,37.19553836552241,Cwa,EastAsia
Corpus Christi,UnitedStates,138.0,225223.0591711998,1632.0511534144912,0.23,-97.42709842614036,27.792425887152483,Cfa,NorthAm
Aktau,Kazakhstan,61.0,225566.90630340576,3697.818136121406,0.10166666666666667,51.222553963323506,43.658950894396135,BWk,CentralAsia
Matara,SriLanka,95.0,225583.75665283203,2374.565859503495,0.15833333333333333,80.5121358813334,5.9763321289050655,Af,WestAsia
Kropyvnytskyi,Ukraine,61.0,225912.56813049316,3703.4847234507074,0.10166666666666667,32.257399191849814,48.51276471560724,Dfb,Euro
Davenport,UnitedStates,232.0,226544.40949332714,976.4845236781342,0.38666666666666666,-90.53182709927944,41.49775536236479,Dfa,NorthAm
Skikda,Algeria,68.0,227149.87744140625,3340.4393741383274,0.11333333333333333,6.9524510058709215,36.85431052494255,Csa,Euro
Rennes,France,65.0,227572.14044189453,3501.1098529522237,0.10833333333333334,-1.6751672728084155,48.11194384384226,Cfb,Euro
Salerno,Italy,71.0,227612.20695066452,3205.8057316995005,0.11833333333333333,14.859324405143253,40.674618125898455,Csa,Euro
Victoria,Canada,103.0,227670.6631011963,2210.3947873902553,0.17166666666666666,-123.45327230200326,48.49314371783953,Csb,NorthAm
Shanxian,China,66.0,227804.49935913086,3451.5833236231947,0.11,116.08449191643203,34.78006443982729,Cwa,EastAsia
沂水县,China,66.0,227886.68338012695,3452.8285360625296,0.11,118.62462273914521,35.77325360686142,Cwa,EastAsia
Sievierodonetsk,Ukraine,76.0,228321.32095336914,3004.227907281173,0.12666666666666668,38.40713851110003,48.96018061816325,Dfb,Euro
Kostroma,Russia,75.0,230066.5018310547,3067.5533577473957,0.125,40.93371892518508,57.75796972924855,Dfb,Euro
Temecula,UnitedStates,128.0,231017.50271487236,1804.8242399599403,0.21333333333333335,-117.18763750150025,33.53415223592448,BSk,NorthAm
Atyrau,Kazakhstan,73.0,231440.41429138184,3170.416634128518,0.12166666666666667,51.91949542047773,47.113582796367226,BWk,CentralAsia
Racine,UnitedStates,204.0,231689.5420255661,1135.7330491449318,0.34,-87.92965925813351,42.660594020581826,Dfa,NorthAm
Xinghua,China,79.0,318278.2258300781,4028.8383016465586,0.13166666666666665,119.84643202779114,32.923719753011405,Cfa,EastAsia
Haimen,China,87.0,231847.388671875,2664.9125134698274,0.145,121.21325779034147,31.907338963924023,Cfa,EastAsia
Tiraspol,Moldova,65.0,232839.11163330078,3582.1401789738584,0.10833333333333334,29.562278062004562,46.84740276465525,Cfb,Euro
Udupi,India,79.0,233047.251953125,2949.9652145965188,0.13166666666666665,74.75818471370488,13.347023382610574,Am,WestAsia
Nalchik,Russia,61.0,233239.3356781006,3823.595666854108,0.10166666666666667,43.63421953321942,43.50050761405157,Dfa,CentralAsia
Saskatoon,Canada,116.0,233297.8884716034,2011.188693720719,0.19333333333333333,-106.61038952759189,52.1507323572873,Dfb,NorthAm
Lianjiang,China,77.0,372674.89738464355,4839.9337322680985,0.12833333333333333,110.27956518966396,21.586719897416838,Cfa,EastAsia
Qidong,China,104.0,447289.11798095703,4300.856903663049,0.17333333333333334,121.66363500133261,31.825178903790672,Cfa,EastAsia
Lanxi,China,66.0,316776.000579834,4799.636372421727,0.11,119.4395544001943,29.2314694138608,Cfa,EastAsia
Katta-Kurgan,Uzbekistan,80.0,235482.73759174347,2943.5342198967933,0.13333333333333333,66.25784056790421,39.943030808822115,BSk,CentralAsia
Reno,UnitedStates,138.0,235606.79189629108,1707.2955934513845,0.23,-119.79454932588857,39.47474543256501,Csb,NorthAm
Xinzhou,China,66.0,384002.4796142578,5818.219388094815,0.11,112.72266967033627,38.42554172526322,BSk,EastAsia
Pavlodar,Kazakhstan,66.0,235888.82846069336,3574.0731584953537,0.11,76.97651718018614,52.290248237550834,Dfb,CentralAsia
eGobhoza,SouthAfrica,87.0,236045.4300775528,2713.165862960377,0.145,31.164090155833076,-25.38492422538066,Cwa,Africa
Harrisburg,UnitedStates,236.0,236655.53451442719,1002.7776886204542,0.3933333333333333,-76.9386760268576,40.28504652429207,Cfa,NorthAm
Laizhou,China,63.0,236694.94982910156,3757.062695700025,0.105,119.97820622199691,37.203764418831774,Dwa,EastAsia
Ulipur,Bangladesh,89.0,236793.57235336304,2660.601936554641,0.14833333333333334,89.61516701564054,25.6958268552509,Cwa,CentralAsia
Lincoln,UnitedStates,158.0,237604.98806929588,1503.8290384132652,0.2633333333333333,-96.60607987968973,40.80103512411006,Dfa,NorthAm
Pinghu,China,62.0,237856.95306396484,3836.4024687736264,0.10333333333333333,121.00162777881663,30.723875019146547,Cfa,EastAsia
Gucheng,China,100.0,314427.82067871094,3144.2782067871094,0.16666666666666666,111.65442467179335,32.31998097480031,Cfa,EastAsia
Hebron,Palestina,63.0,238425.6801147461,3784.53460499597,0.105,35.08041090468467,31.5367924586011,Csa,Euro
Akron,UnitedStates,177.0,238681.91172790527,1348.4853769938152,0.295,-81.52940443429591,41.0667245055764,Dfa,NorthAm
Kaiyuan,China,75.0,372111.7794570923,4961.49039276123,0.125,124.04465847136944,42.55011484910725,Dwa,EastAsia
Chernivtsi,Ukraine,79.0,240724.6125191599,3047.1469939134167,0.13166666666666665,25.935748446835127,48.27767305527513,Dfb,Euro
Dingzhou,China,69.0,241199.23266601562,3495.641053130661,0.115,114.97751088626615,38.50796073246593,BSk,EastAsia
Pattaya,Thailand,81.0,242132.55805969238,2989.290840243116,0.135,100.9243073829677,12.913425738757404,Aw,SouthEastAsia
Zhytomyr,Ukraine,70.0,242882.61733436584,3469.7516762052264,0.11666666666666667,28.660546556385906,50.28101785022608,Dfb,Euro
South Bend,UnitedStates,277.0,243633.1286239624,879.5419805919221,0.46166666666666667,-86.11325238822711,41.653792086792684,Dfa,NorthAm
Reading,UnitedKingdom,73.0,243978.45640945435,3342.1706357459498,0.12166666666666667,-1.0743429971104537,51.472581213402314,Cfb,Euro
Richmond,UnitedStates,165.0,244212.0311176479,1480.0729158645327,0.275,-77.51036026495373,37.509598324965864,Cfa,NorthAm
Osizweni,SouthAfrica,61.0,244237.00588989258,4003.8853424572553,0.10166666666666667,30.097659897535557,-27.777727218291634,Cfb,Africa
Kolwezi,DemocraticRepublicoftheCongo,87.0,244399.89696502686,2809.194217988814,0.145,25.464738867501275,-10.711272483900101,Cwb,Africa
Hafar Al-Batin,SaudiArabia,64.0,244676.517578125,3823.070587158203,0.10666666666666667,45.981406707146455,28.39899143059865,BSh,WestAsia
Guang'an,China,62.0,245369.301071167,3957.5693721155967,0.10333333333333333,106.6105808437397,30.475749912694635,Cfa,EastAsia
Maseru,Lesotho,75.0,245877.60485839844,3278.368064778646,0.125,27.529791202818664,-29.333407220106203,Cwb,Africa
Quảng Ngãi,Vietnam,67.0,246708.0237121582,3682.2093091366896,0.11166666666666666,108.79307115981346,15.128902781351803,Am,EastAsia
Miyazaki,Japan,95.0,247743.50390625,2607.826356907895,0.15833333333333333,131.39455120279803,31.947077361123604,Cfa,EastAsia
Gaobeidian,China,76.0,247925.53381347656,3262.1780764931127,0.12666666666666668,115.85689056990358,39.29584178235811,BSk,EastAsia
Polokwane,SouthAfrica,99.0,248059.57300186157,2505.6522525440564,0.165,29.42400517324433,-23.849306578961585,BSk,Africa
Yangzhong,China,120.0,248443.9530582428,2070.3662754853567,0.2,119.84718654044745,32.26729074805234,Cfa,EastAsia
Toledo,UnitedStates,216.0,248621.18096731603,1151.0239859597964,0.36,-83.57315375572878,41.618694702699486,Dfa,NorthAm
Kokand,Uzbekistan,80.0,248723.7950744629,3109.0474384307863,0.13333333333333333,70.93595610561306,40.53661852368306,Csa,CentralAsia
Rayong,Thailand,118.0,248812.7974472046,2108.5830292135984,0.19666666666666666,101.21094443068549,12.699243616959441,Aw,SouthEastAsia
Taganrog,Russia,73.0,249514.20764923096,3418.002844510013,0.12166666666666667,38.91862287680857,47.2573389880845,Dfa,Euro
La Paz,Mexico,68.0,249632.31799316406,3671.0634998994715,0.11333333333333333,-110.32723860701628,24.107791716448656,BWh,NorthAm
Constanța,Romania,72.0,249829.142578125,3469.8492024739585,0.12,28.582715375068435,44.180497976786285,Cfa,Euro
A Coruña,Spain,64.0,249860.79467773438,3904.0749168395996,0.10666666666666667,-8.384744332582834,43.30292504151865,Csb,Euro
Ljubljana,Slovenia,91.0,250334.98989582062,2750.9339548991275,0.15166666666666667,14.52636280547388,46.07340990134396,Dfb,Euro
Gloucester,UnitedKingdom,74.0,250635.84085083008,3386.9708223085145,0.12333333333333334,-2.14452061800013,51.86030764689848,Cfb,Euro
Cagliari,Italy,64.0,251634.6310253553,3931.7911097711767,0.10666666666666667,9.130990147572355,39.285745923924274,Csa,Euro
Kashan,Iran,61.0,251966.78512573242,4130.603034848073,0.10166666666666667,51.414098184725994,34.00727654238543,BWh,CentralAsia
Zucheng,China,96.0,252182.97091674805,2626.905947049459,0.16,119.43964054739212,36.01303487493735,Cwa,EastAsia
Turtkul,Uzbekistan,77.0,252613.6749267578,3280.6970769708805,0.12833333333333333,60.9727691006725,41.56795283956929,BWk,CentralAsia
Rustenburg,SouthAfrica,82.0,252842.11700439453,3083.440451273104,0.13666666666666666,27.24502613005142,-25.64570265010412,Cwa,Africa
Springfield,UnitedStates,386.0,500745.3658723235,1297.2677872339987,0.6433333333333333,-72.53532437785374,42.16261227539341,Dfa,NorthAm
Purworejo,Indonesia,90.0,351376.53144836426,3904.183682759603,0.15,109.95711336720994,-7.727779732331456,Af,AustralAsia
Misrata,Libya,120.0,253420.9871673584,2111.841559727987,0.2,15.067770955998657,32.35475453322957,BSh,Euro
Linying,China,86.0,253454.51419067383,2947.1455138450447,0.14333333333333334,113.96994672770875,33.80051920986139,Cwa,EastAsia
Quetzaltenango,Guatemala,67.0,253707.7189025879,3786.682371680416,0.11166666666666666,-91.52098278314617,14.852505894339428,Am,CentralAm
Syracuse,UnitedStates,199.0,253820.43122410774,1275.4795538899887,0.33166666666666667,-76.1939400261877,43.09586427960901,Dfb,NorthAm
Parakou,Benin,62.0,254250.89149475098,4100.820830560499,0.10333333333333333,2.61222175879175,9.346432082764682,Aw,Africa
Xintai,China,98.0,254590.38690185547,2597.86109083526,0.16333333333333333,117.71571173686296,35.887883496206186,Cwa,EastAsia
Jintan,China,65.0,254625.75177001953,3917.3192580003006,0.10833333333333334,119.58916366572613,31.74291108358655,Cfa,EastAsia
Buôn Ma Thuột,Vietnam,66.0,254680.25708007812,3858.7917739405775,0.11,108.04204217094764,12.669562095817197,Aw,SouthEastAsia
Ijebu-Ode,Nigeria,62.0,255170.21031188965,4115.648553417575,0.10333333333333333,3.9396788619768546,6.813370785334893,Aw,Africa
Haian,China,76.0,255199.0093383789,3357.881701820775,0.12666666666666668,120.44635786285997,32.524952442896,Cfa,EastAsia
Bahía Blanca,Argentina,75.0,256004.97979736328,3413.3997306315105,0.125,-62.252070692853636,-38.7259491094454,Cfa,SouthAm
Lausanne,Switzerland,73.0,256646.8685646057,3515.71052828227,0.12166666666666667,6.5698990647724855,46.57320036044575,Cfb,Euro
Contai,India,71.0,256697.08650535345,3615.451922610612,0.11833333333333333,87.72694528459003,21.765887308578776,Aw,CentralAsia
İskenderun,Turkey,72.0,256742.6216430664,3565.869745042589,0.12,36.183414689056136,36.57306815637787,Csa,Euro
Banda Aceh,Indonesia,105.0,256789.533203125,2445.6146019345238,0.175,95.35481385613006,5.522369025000938,Af,SouthEastAsia
Liyang,China,73.0,258046.41134643555,3534.882347211446,0.12166666666666667,119.45389776788166,31.43776007540095,Cfa,EastAsia
Sterlitamak,Russia,69.0,258833.62921142578,3751.2120175568953,0.115,55.96675553530514,53.639805834101864,Dfb,CentralAsia
Khmelnytskyi,Ukraine,63.0,259103.83959960938,4112.759358723958,0.105,27.014526646856858,49.40786139019058,Dfb,Euro
Mandi Gobindgarh,India,61.0,259428.91088867188,4252.932965388063,0.10166666666666667,76.24999155515295,30.668398239844485,BSh,CentralAsia
Ghent,Belgium,142.0,259956.4210510254,1830.6790214860944,0.23666666666666666,3.756490164661466,51.03214418370627,Cfb,Euro
Christchurch,NewZealand,130.0,260085.59660339355,2000.6584354107197,0.21666666666666667,172.52306705605432,-43.54787595839424,Cfb,AustralAsia
Cape Coral,UnitedStates,280.0,260980.06280833483,932.0716528869101,0.4666666666666667,-81.87631237116625,26.628402768841227,Cfa,NorthAm
拖船镇,China,73.0,261365.30716705322,3580.346673521277,0.12166666666666667,115.73326418469762,28.188163001012192,Cfa,EastAsia
Graz,Austria,73.0,261476.19360351562,3581.865665801584,0.12166666666666667,15.449439410540265,47.045571120351745,Dfb,Euro
Renqiu,China,89.0,261867.54083251953,2942.3319194665114,0.14833333333333334,116.08386680232894,38.70174702950452,BSk,EastAsia
McAllen,UnitedStates,154.0,262087.89157104492,1701.8694257860059,0.25666666666666665,-98.17948917574874,26.24685801110083,BSh,NorthAm
Phúc Thọ,Vietnam,101.0,262544.02208328247,2599.4457632008166,0.16833333333333333,105.45892517676656,21.16455540293383,Cwa,EastAsia
Shimm al Basal al Bahari,Egypt,67.0,262804.8487663269,3922.460429348163,0.11166666666666666,30.676271654031307,28.617928228274174,BWh,Euro
Detroit,Canada,182.0,263078.34688824415,1445.48542246288,0.30333333333333334,-82.85940542413556,42.17849819603624,Dfa,NorthAm
Novi Sad,Serbia,73.0,263087.1855697632,3603.9340489008655,0.12166666666666667,19.833849228837767,45.27717856162248,Cfa,Euro
Xinzheng,China,71.0,263465.6950073242,3710.7844367228763,0.11833333333333333,113.76086309930943,34.40343456435182,Cwa,EastAsia
Plymouth,UnitedKingdom,88.0,264045.9291305542,3000.521921938116,0.14666666666666667,-4.1680111435902605,50.430478036355474,Cfb,Euro
Dhubri,India,86.0,264562.9698791504,3076.3136032459347,0.14333333333333334,89.94316921055058,26.063763341340206,Cwa,CentralAsia
Bielefeld,Germany,114.0,264946.662651062,2324.09353202686,0.19,8.549510787876947,51.99376840957717,Cfb,Euro
Vigo,Spain,94.0,265406.88983917236,2823.477551480557,0.15666666666666668,-8.676426148583143,42.20402679900779,Csb,Euro
Saransk,Russia,82.0,265561.70877075195,3238.5574240335604,0.13666666666666666,45.17572236180344,54.18074124359847,Dfb,CentralAsia
Kilima Hewa,Tanzania,63.0,265794.8144721985,4218.965309082516,0.105,29.652395413987797,-4.8755267381057985,Aw,Africa
Spokane,UnitedStates,176.0,265825.05864048004,1510.3696513663638,0.29333333333333333,-117.30583285543194,47.74271419476879,Csb,NorthAm
Semey,Kazakhstan,90.0,266840.96858170256,2964.899650907806,0.15,80.24122367480626,50.41568691027521,Dfb,CentralAsia
Lishui,China,81.0,423971.426864624,5234.215146476839,0.135,119.90107678328492,28.44146806393176,Cfa,EastAsia
宝坻区,China,62.0,266909.998046875,4304.999968497984,0.10333333333333333,117.31215773769733,39.72496958650299,Dwa,EastAsia
Panaji,India,89.0,267241.95800995827,3002.718629325374,0.14833333333333334,73.8294761610438,15.502536948042108,Am,WestAsia
Antioch,UnitedStates,166.0,268055.6356282234,1614.7929857121892,0.27666666666666667,-121.73081327957993,38.00361177207817,Csa,NorthAm
Sari,Iran,62.0,268737.3631515503,4334.473599218553,0.10333333333333333,53.052334212793745,36.5620290622615,Csa,CentralAsia
Sungai Petani,Malaysia,84.0,269176.42119693756,3204.4812047254472,0.14,100.49670248614959,5.639850877280551,Af,SouthEastAsia
Nagano,Japan,96.0,269297.6564941406,2805.183921813965,0.16,138.2179623390367,36.634877419107966,Cfa,EastAsia
Kherson,Ukraine,77.0,269644.4277648926,3501.875685258345,0.12833333333333333,32.65160570675348,46.67297828224356,Cfa,Euro
Sakarya [Adapazarı],Turkey,92.0,269660.2234649658,2931.089385488759,0.15333333333333332,30.420786493715138,40.75349838533152,Cfa,Euro
Xitao,China,124.0,270137.3319568634,2178.5268706198663,0.20666666666666667,113.31866569870517,35.08001152522413,BSk,EastAsia
Baton Rouge,UnitedStates,247.0,270758.84635952115,1096.1896613745796,0.4116666666666667,-91.07819736864784,30.408497885984804,Cfa,NorthAm
Kōchi,Japan,104.0,270888.4571762085,2604.696703617389,0.17333333333333334,133.55180873459955,33.54628200691092,Cfb,EastAsia
Jianhu,China,61.0,270944.2482147217,4441.708987126585,0.10166666666666667,119.78860351450857,33.46034778602237,Cfa,EastAsia
Buraydah,SaudiArabia,101.0,271026.14167785645,2683.4271453253114,0.16833333333333333,43.956332974058036,26.32881325223971,BWh,WestAsia
Nashville,UnitedStates,221.0,273128.95967006683,1235.8776455659133,0.36833333333333335,-86.77702788739614,36.16715997677359,Cfa,NorthAm
Huaxian,China,93.0,273363.0386505127,2939.387512371104,0.155,114.52736672468394,35.60401416621746,BSk,EastAsia
Mokpo-si,SouthKorea,61.0,273421.0368542671,4482.31207957815,0.10166666666666667,126.42618526246892,34.82295939851658,Cfa,EastAsia
Xianning,China,69.0,274220.2233505249,3974.2061355148535,0.115,114.32581643575176,29.860994238581746,Cfa,EastAsia
Gaborone,Botswana,96.0,274571.73598098755,2860.122249801954,0.16,25.894307357188012,-24.630784672902347,BSh,Africa
Hail,SaudiArabia,69.0,274651.1349334717,3980.4512309198794,0.115,41.687057931855946,27.51285485157579,BWh,WestAsia
Pelotas,Brazil,64.0,274768.69467926025,4293.2608543634415,0.10666666666666667,-52.33743825994941,-31.727931332532467,Cfa,SouthAm
Lexington,UnitedStates,183.0,274818.88901150227,1501.742562904384,0.305,-84.50950118203819,38.01441780490167,Cfa,NorthAm
Rahimyar Khan,Pakistan,63.0,274839.1422767639,4362.526067885142,0.105,70.28795564038941,28.42318679707076,BWh,CentralAsia
Vologda,Russia,77.0,274859.70456695557,3569.6065528176046,0.12833333333333333,39.843483858320305,59.21924190807553,Dfc,Euro
Madison,UnitedStates,207.0,274981.5456183553,1328.4132638567887,0.345,-89.41404238240635,43.103214714696016,Dfa,NorthAm
Nizhny Tagil,Russia,112.0,275119.11446380615,2456.4206648554123,0.18666666666666668,60.012171654673814,57.90905855890754,Dfc,CentralAsia
Poltava,Ukraine,91.0,275189.0555114746,3024.0555550711497,0.15166666666666667,34.526706281842486,49.61460751560996,Dfb,Euro
Cherepovets,Russia,81.0,275399.51535081863,3399.9940166767733,0.135,37.891921534369345,59.15918158844319,Dfc,Euro
Kaunas,Lithuania,106.0,276334.5023956299,2606.929267883301,0.17666666666666667,23.935276578900506,54.90993876415138,Dfb,Euro
Faridpur,Bangladesh,74.0,276825.14794921875,3740.8803776921454,0.12333333333333334,89.81707498702521,23.578716949641407,Aw,CentralAsia
Limeira,Brazil,61.0,277098.6062011719,4542.600101658555,0.10166666666666667,-47.4332452129187,-22.561289325795464,Cfa,SouthAm
Porlamar,Venezuela,94.0,277153.8142776489,2948.444832740946,0.15666666666666668,-63.927292413807834,10.984068653114324,Aw,CentralAm
Palmdale,UnitedStates,147.0,277181.20722961426,1885.5864437388725,0.245,-118.16213013730707,34.630519737974964,BSk,NorthAm
Punto Fijo,Venezuela,84.0,277377.7812280655,3302.1164431912557,0.14,-70.17327647248662,11.738070188356765,BSh,CentralAm
Bozhou,China,69.0,278052.27014160156,4029.7430455304575,0.115,115.76199630331439,33.8582202277695,Cwa,EastAsia
Shuangyashan,China,73.0,278319.7092590332,3812.598756973058,0.12166666666666667,131.152796896138,46.674111005236604,Dwa,EastAsia
Cluj-Napoca,Romania,61.0,278492.8116378784,4565.4559284898105,0.10166666666666667,23.603824065222945,46.78197546405491,Dfb,Euro
Cherkasy,Ukraine,66.0,278510.05924606323,4219.8493825161095,0.11,32.03307842455703,49.44738988140253,Dfb,Euro
Chernihiv,Ukraine,64.0,278667.93088150024,4354.186420023441,0.10666666666666667,31.317351177144097,51.50366102955995,Dfb,Euro
Ponta Grossa,Brazil,85.0,279277.02769470215,3285.6120905259077,0.14166666666666666,-50.162408501924475,-25.065066612870915,Cfb,SouthAm
Valletta,Malta,88.0,279473.3487854004,3175.8335089250045,0.14666666666666667,14.455378794213027,35.88601881392562,Csa,Euro
大屯街道,China,105.0,280966.21057128906,2675.868672107515,0.175,116.90609795185698,34.78092990828325,Cwa,EastAsia
Al Jubayl Industrial City,SaudiArabia,113.0,281219.7236022949,2488.6701203742914,0.18833333333333332,49.59178008745972,27.027460965080454,BWh,WestAsia
Khujand,Tajikistan,94.0,281403.1257162094,2993.650273576696,0.15666666666666668,69.66676425889563,40.259601698657846,BWk,CentralAsia
Murmansk,Russia,72.0,281927.6393623352,3915.661657810211,0.12,33.10668796648125,68.9491154962808,Dfc,Euro
Lucheng,China,117.0,460785.58091926575,3938.3382984552627,0.195,101.53139090841081,25.037517524641355,Cwb,EastAsia
Quy Nhơn,Vietnam,76.0,282794.682308197,3720.982661949961,0.12666666666666668,109.1688227720442,13.785909449131152,Aw,SouthEastAsia
Hải Dương,Vietnam,72.0,283306.6286315918,3934.814286549886,0.12,106.28741559660662,20.93316686154473,Cwa,EastAsia
Durgapur,India,95.0,283509.2669067383,2984.308072702508,0.15833333333333333,87.30469344778588,23.5286208727707,Aw,CentralAsia
Leizhou,China,61.0,283776.19708251953,4652.068804631468,0.10166666666666667,110.07289187029852,20.931251992947267,Cwa,EastAsia
Varna,Bulgaria,83.0,283834.7825393677,3419.6961751731046,0.13833333333333334,27.892459253019556,43.242556472941416,Cfb,Euro
Pangkalpinang,Indonesia,65.0,283948.85207748413,4368.44387811514,0.10833333333333334,106.09998754548346,-2.1131846193708053,Af,AustralAsia
兴安街道,China,96.0,284455.8733520508,2963.0820140838623,0.16,119.20632779679701,36.43166422898017,Cwa,EastAsia
Oryol,Russia,73.0,285455.98318481445,3910.355934038554,0.12166666666666667,36.04990685825204,52.95306413677809,Dfb,Euro
Unaizah,SaudiArabia,67.0,286369.9874267578,4274.178916817281,0.11166666666666666,43.987719603933996,26.09226575177084,BWh,WestAsia
Cascavel,Brazil,86.0,286856.90477859974,3335.5454044023227,0.14333333333333334,-53.462836933294014,-24.9797235908792,Cfa,SouthAm
Nagasaki,Japan,97.0,286909.33320999146,2957.8281774225925,0.16166666666666665,129.84739532815348,32.76149129354372,Cfa,EastAsia
Karlsruhe,Germany,120.0,286982.3704147339,2391.5197534561157,0.2,8.363395078571795,49.039219588274804,Cfb,Euro
Lens,France,141.0,287221.86642456055,2037.0345136493656,0.235,2.8844022015396162,50.44211127563583,Cfb,Euro
Tezpur,India,101.0,288094.5157470703,2852.420947990795,0.16833333333333333,92.79650620501747,26.671907285712738,Cwa,CentralAsia
Enschede,Netherlands,112.0,288137.80305480957,2572.658955846514,0.18666666666666668,6.71142906330199,52.31884198324393,Cfb,Euro
Timișoara,Romania,63.0,288522.8183288574,4579.727275061229,0.105,21.24659112524755,45.7542130759872,Cfb,Euro
Tambov,Russia,66.0,288909.93572998047,4377.423268636067,0.11,41.44540774164964,52.718041788246104,Dfb,Euro
Monclova,Mexico,71.0,288929.09264335036,4069.423840047188,0.11833333333333333,-101.43070214749957,26.895066772850914,BSk,NorthAm
Białystok,Poland,73.0,289225.9779663086,3961.999698168611,0.12166666666666667,23.09768296708691,53.15859542167535,Dfb,Euro
Valladolid,Spain,67.0,290635.78399658203,4337.847522337045,0.11166666666666666,-4.713397363336895,41.61823451134965,Csb,Euro
Naga,Philippines,76.0,291373.5091705322,3833.861962770161,0.12666666666666668,123.18944638987071,13.611224469791848,Af,SouthEastAsia
Jiyuan,China,75.0,291478.35626220703,3886.378083496094,0.125,112.58240166815366,35.06563889433613,Dwa,EastAsia
Heerlen,Germany,111.0,293165.1607513428,2641.1275743364213,0.185,6.184439124329427,50.83326234420975,Cfb,Euro
Montpellier,France,73.0,293865.2647705078,4025.551572198737,0.12166666666666667,3.8894402089400075,43.62646003036781,Csb,Euro
Blackwater,UnitedKingdom,111.0,295363.98513793945,2660.9368030444994,0.185,-0.7972075954994734,51.232235595588335,Cfb,Euro
Modesto,UnitedStates,146.0,297123.3390944004,2035.0913636602768,0.24333333333333335,-120.96439677876714,37.67414055253169,Csa,NorthAm
Malmö,Sweden,90.0,297225.77866744995,3302.508651860555,0.15,13.087260506679254,55.50472967542179,Cfb,Euro
Suizhou,China,78.0,297267.1499633789,3811.1173072228066,0.13,113.37633221993994,31.721274726604822,Cfa,EastAsia
Hat Yai,Thailand,84.0,297791.7210083008,3545.1395358131044,0.14,100.46477256441169,6.999533782864452,Am,SouthEastAsia
Oxnard,UnitedStates,136.0,297806.3933722079,2189.752892442705,0.22666666666666666,-119.19803104926935,34.30734286277168,Csb,NorthAm
Kirov,Russia,80.0,298582.39082336426,3732.279885292053,0.13333333333333333,49.612475870785296,58.59213348161233,Dfb,CentralAsia
Dashiqiao,China,95.0,299099.6182355881,3148.4170340588216,0.15833333333333333,122.51295505727178,40.638985351087285,Dwa,EastAsia
Wuzhong,China,78.0,299412.9515991211,3838.6275846041167,0.13,106.15403393728369,37.973119110898374,BWk,EastAsia
Asahikawa,Japan,99.0,300358.4804992676,3033.9240454471474,0.165,142.412056991461,43.77404413646318,Dfb,EastAsia
Ha Long,Vietnam,105.0,301585.5499572754,2872.2433329264322,0.175,107.16759952651282,20.987537836495516,Cwa,EastAsia
Gaomi,China,110.0,302224.2423648834,2747.4931124080313,0.18333333333333332,119.76114002541877,36.37495442924226,Cwa,EastAsia
Notun Digha,India,63.0,302286.1752319336,4798.193257649739,0.105,87.48102273963241,21.64268012840801,Aw,CentralAsia
Coatzacoalcos,Mexico,74.0,302342.1912522912,4085.705287193124,0.12333333333333334,-94.42228950653147,18.111491140814557,Am,NorthAm
Palu,Indonesia,81.0,302666.45777893066,3736.622935542354,0.135,119.87824196381678,-0.9045020876531894,Af,SouthEastAsia
Uberaba,Brazil,73.0,303350.00846862793,4155.479568063396,0.12166666666666667,-47.93380854006767,-19.754711663867983,Aw,SouthAm
Bukittinggi,Indonesia,76.0,304434.3942680359,4005.715714053104,0.12666666666666668,100.40058140840657,-0.3104684257522387,Cfb,AustralAsia
Pujiang,China,95.0,305131.9235229492,3211.914984452097,0.15833333333333333,119.94261792903225,29.465670209806692,Cfa,EastAsia
Ulan-Ude,Russia,105.0,307198.7098388672,2925.7019984654016,0.175,107.53979626813675,51.83913745652827,Dwc,EastAsia
Bengkulu,Indonesia,87.0,308086.8172302246,3541.2277842554554,0.145,102.31790490276721,-3.809014512236829,Af,AustralAsia
Provo,UnitedStates,137.0,308567.99003601074,2252.321095153363,0.22833333333333333,-111.80418558430608,40.245515389473596,Cfa,NorthAm
Hull,UnitedKingdom,102.0,308901.7895812988,3028.448917463714,0.17,-0.37717582819745993,53.810009279137525,Cfb,Euro
Yingtan,China,85.0,309091.33239746094,3636.368616440717,0.14166666666666666,117.0745373941498,28.260614431531483,Cfa,EastAsia
Magnitogorsk,Russia,129.0,309388.8651371002,2398.363295636436,0.215,59.06208901557668,53.40562916342521,Dfb,CentralAsia
Zhangqiu,China,85.0,310190.96936035156,3649.305521886489,0.14166666666666666,117.50994745642717,36.68620738329952,Dwa,EastAsia
Bari,Italy,80.0,310238.8774409294,3877.985968011618,0.13333333333333333,16.84160915807551,41.06710798861927,Csa,Euro
Xiaoxiang,China,85.0,310678.38720703125,3655.039849494485,0.14166666666666666,126.57095110702781,45.929368352785005,Dwa,EastAsia
Linqu,China,105.0,311827.06408691406,2969.781562732515,0.175,118.53265516605396,36.48459276489331,Cwa,EastAsia
Boa Vista,Brazil,83.0,311919.72482299805,3758.068973771061,0.13833333333333334,-60.70211257328664,2.8222285283224817,Aw,CentralAm
Augsburg,Germany,101.0,312093.9995727539,3090.0395997302367,0.16833333333333333,10.893797251792494,48.37817720515487,Cfb,Euro
Yuzhou,China,114.0,312660.3595428467,2742.6347328319885,0.19,113.51342255915917,34.1743260581941,Cwa,EastAsia
Utsunomiya,Japan,109.0,312681.4138183594,2868.6368240216457,0.18166666666666667,139.88924182649154,36.553023240192324,Cfa,EastAsia
Albany,UnitedStates,201.0,312893.28580111265,1556.6830139358838,0.335,-73.82793752566963,42.72713561440141,Dfa,NorthAm
Bauru,Brazil,78.0,313686.2508010864,4021.6186000139287,0.13,-49.059474091177215,-22.351277576066593,Cfa,SouthAm
Hartford,UnitedStates,183.0,313698.54593092203,1714.1997045405576,0.305,-72.66060743527588,41.73818011084205,Cfa,NorthAm
Basel,Switzerland,90.0,315752.0074005127,3508.3556377834743,0.15,7.692949458425071,47.4878675948357,Cfb,Euro
Belgorod,Russia,93.0,316614.95526123047,3404.46188452936,0.155,36.56385931952843,50.59184245517748,Dfb,Euro
Orizaba,Mexico,67.0,316676.9188232422,4726.521176466301,0.11166666666666666,-97.16668551318023,18.82559609730262,Cwb,NorthAm
Brno,CzechRepublic,94.0,316980.16191101074,3372.1293820320293,0.15666666666666668,16.632562620907112,49.16142671730511,Dfb,Euro
Catia La Mar,Venezuela,71.0,317113.74314403534,4466.39074850754,0.11833333333333333,-66.97557704865204,10.588562149583261,Aw,CentralAm
Campos dos Goytacazes,Brazil,62.0,317588.89461517334,5122.401526051183,0.10333333333333333,-41.303491475354754,-21.768381986116452,Aw,SouthAm
Xichang,China,68.0,318217.24959754944,4679.66543525808,0.11333333333333333,102.24867743473725,27.8778924932569,Cwb,EastAsia
Tây Ninh,Vietnam,85.0,319288.7804260254,3756.3385932473575,0.14166666666666666,106.10829981168936,11.300526505780986,Aw,SouthEastAsia
Gold Coast,Australia,189.0,319509.98115348816,1690.5290008121067,0.315,153.37344480421532,-28.12346119154302,Cfa,AustralAsia
Wuchuan,China,97.0,320298.850189209,3302.050001950608,0.16166666666666665,110.74097476680623,21.415842015255723,Cfa,EastAsia
Lublin,Poland,86.0,320313.2263183594,3724.5723990506904,0.14333333333333334,22.54398193469172,51.21584847467343,Dfb,Euro
Rio Branco,Brazil,72.0,320509.329246521,4451.518461757236,0.12,-67.8070633704324,-9.984962486976064,Af,SouthAm
Dinajpur,Bangladesh,67.0,320515.0504760742,4783.806723523496,0.11166666666666666,88.63238886043725,25.64183249967469,Cwa,CentralAsia
Barinas,Venezuela,62.0,320959.2297039032,5176.761769417793,0.10333333333333333,-70.26209408033093,8.641029236710253,Am,CentralAm
Rouen,France,113.0,320960.26473999023,2840.356325132657,0.18833333333333332,1.073497137964129,49.42084635286547,Cfb,Euro
Franca,Brazil,78.0,321559.6295337677,4122.559352997022,0.13,-47.36465775808088,-20.519026770141213,Cwa,SouthAm
Ensenada,Mexico,90.0,322329.2368826866,3581.4359653631846,0.15,-116.60722235285203,31.84730512559187,Csb,NorthAm
Stoke-on-Trent,UnitedKingdom,118.0,322486.1854171753,2732.9337747218246,0.19666666666666666,-2.1128665185909155,53.010899468052365,Cfb,Euro
Brest,Belarus,76.0,322953.42013549805,4249.387107046027,0.12666666666666668,23.713336388258593,52.1036353395183,Dfb,Euro
Sapele,Nigeria,62.0,323803.704498291,5222.640395133726,0.10333333333333333,5.693355537180596,5.872721054175067,Am,Africa
Bydgoszcz,Poland,90.0,324027.0643444061,3600.300714937846,0.15,18.029479497491575,53.1285740578769,Cfb,Euro
Jingmen,China,87.0,324153.44985198975,3725.901722436664,0.145,112.20664830675601,30.980820103150048,Cfa,EastAsia
Guigang,China,92.0,324439.0689544678,3526.511619070302,0.15333333333333332,109.62928605514374,23.09343131099957,Cfa,EastAsia
Kamra,Pakistan,97.0,325085.3655395508,3351.3955210262966,0.16166666666666665,72.48645457625746,33.91331362516121,BSh,CentralAsia
Szczecin,Poland,97.0,325875.4293022156,3359.5405082702637,0.16166666666666665,14.59676951380677,53.40112281545493,Cfb,Euro
Anápolis,Brazil,90.0,326210.3331451416,3624.55925716824,0.15,-48.96138692892337,-16.31847024535458,Aw,SouthAm
Batangas City,Philippines,87.0,326495.7392272949,3752.824588819482,0.145,121.04087087446574,13.770787640763006,Am,SouthEastAsia
Vinh,Vietnam,69.0,326520.3703613281,4732.179280598958,0.115,105.67534302893075,18.686673277692243,Aw,EastAsia
Kota Bharu,Malaysia,121.0,326948.31481933594,2702.052188589553,0.20166666666666666,102.26655563274983,6.091293539784454,Af,SouthEastAsia
Danyang,China,86.0,327308.85874938965,3805.916962202205,0.14333333333333334,119.58134914807653,32.00385551403353,Cfa,EastAsia
Haiyan,China,91.0,327897.46225738525,3603.2688160152225,0.15166666666666667,120.98044254372655,30.576216167172333,Cfa,EastAsia
Ciudad Obregón,Mexico,65.0,328658.3236293793,5056.28190199045,0.10833333333333334,-109.9461808624934,27.49732067846233,BWh,NorthAm
Nuevo Arraiján,Panama,110.0,329782.658367157,2998.0241669741545,0.18333333333333332,-79.75743368489,8.887270732958596,Am,CentralAm
Binzhou,China,94.0,330597.1514892578,3516.990973289977,0.15666666666666668,117.97690859900791,37.381733329403005,BSk,EastAsia
Bathinda,India,71.0,330603.6171875,4656.388974471831,0.11833333333333333,74.94516548273423,30.215386910784648,BSh,CentralAsia
Alacant / Alicante,Spain,128.0,331089.30407333374,2586.63518807292,0.21333333333333335,-0.5169296263127771,38.407709400330084,BSk,Euro
Sahiwal,Pakistan,66.0,331521.87927246094,5023.058776855469,0.11,73.11412443110144,30.65155051258639,BWh,CentralAsia
Meishan,China,82.0,430541.28631591797,5250.503491657536,0.13666666666666666,103.83550060772917,30.033494506508664,Cwa,EastAsia
Pizhou,China,86.0,332134.5737481117,3862.029927303625,0.14333333333333334,117.95919992052484,34.32939164298616,Cwa,EastAsia
Wichita,UnitedStates,270.0,332187.422055006,1230.3237853889111,0.45,-97.23198191909248,37.7367026690139,Cwa,NorthAm
Gumi-si,SouthKorea,77.0,332203.10929870605,4314.32609478839,0.12833333333333333,128.36849285139638,36.113832103464,Cwa,EastAsia
Waukegan,UnitedStates,313.0,332402.8625472486,1061.9899761892927,0.5216666666666666,-88.11754223165401,42.42701002360041,Dfa,NorthAm
Feni,Bangladesh,75.0,332405.7759153843,4432.0770122051235,0.125,91.40674615298722,23.002803442709492,Aw,CentralAsia
Posadas,Argentina,82.0,332628.0833771229,4056.4400411844254,0.13666666666666666,-55.88077268187487,-27.430130423910967,Cfa,SouthAm
Charleroi,Belgium,171.0,332742.2061920166,1945.8608549240737,0.285,4.445365108967744,50.426042165114744,Cfb,Euro
Ciudad Victoria,Mexico,65.0,332935.1688232422,5122.079520357572,0.10833333333333334,-99.14174648518421,23.77232171704105,Cwa,NorthAm
Mahilyow,Belarus,89.0,334164.55574035645,3754.6579296669265,0.14833333333333334,30.348522730087655,53.88736261372071,Dfb,Euro
Shahrisabz,Uzbekistan,82.0,334627.67345809937,4080.8252860743823,0.13666666666666666,66.83866703630646,39.08161299225969,Csa,CentralAsia
Myitkyina,Myanmar,69.0,335430.6428375244,4861.313664311948,0.115,97.4018906016752,25.385390000054006,Cwa,EastAsia
Grenoble,France,84.0,338199.3000640869,4026.182143620082,0.14,5.724462570426255,45.202002080075836,Cfb,Euro
Vladikavkaz,Russia,77.0,338442.9065551758,4395.362422794491,0.12833333333333333,44.647636648826186,43.059547420704845,Dfb,CentralAsia
Simferopol,Ukraine,92.0,338634.4070930481,3680.8087727505226,0.15333333333333332,34.09184148431682,44.96661852028143,Cfb,Euro
Des Moines,UnitedStates,300.0,338848.0596884191,1129.4935322947304,0.5,-93.66607957604806,41.60041581740006,Dfa,NorthAm
Blackburn,UnitedKingdom,114.0,338970.3301086426,2973.423948321426,0.19,-2.304001694393241,53.81250352214239,Cfb,Euro
London,Canada,153.0,339167.0931587219,2216.778386658313,0.255,-81.28137362557156,42.9884853034858,Dfb,NorthAm
Xianyou,China,100.0,339180.8981933594,3391.8089819335937,0.16666666666666666,118.67888731979113,25.37171544753093,Cfa,EastAsia
Trenggalek,Indonesia,126.0,339541.453081131,2694.773437151833,0.21,111.72192190913928,-8.087948018837812,Am,AustralAsia
Shouguang,China,91.0,340958.44273376465,3746.7960739974137,0.15166666666666667,118.77377874016318,36.881643115146964,Cwa,EastAsia
Makurdi,Nigeria,69.0,341091.99255371094,4943.3622109233465,0.115,8.55902851737159,7.721186005379868,Aw,Africa
Dayton,UnitedStates,322.0,341120.02014160156,1059.3789445391353,0.5366666666666666,-84.19269674903161,39.803792624382204,Cfa,NorthAm
Hangyulu,China,79.0,341595.00787353516,4323.987441437154,0.13166666666666665,109.75595153518911,38.22641746896752,BSk,EastAsia
Thanh Hóa,Vietnam,119.0,343000.92812538147,2882.360740549424,0.19833333333333333,105.79202222465007,19.80995281057608,Cwa,EastAsia
Linhai,China,62.0,343695.6627807617,5543.478431947769,0.10333333333333333,121.15916492870863,28.87513027790747,Cfa,EastAsia
Jiangjin,China,65.0,344026.9194641113,5292.721837909405,0.10833333333333334,106.28058470071254,29.28299482276033,Cfa,EastAsia
Piracicaba,Brazil,84.0,344437.6426792145,4100.448127133505,0.14,-47.66102216257488,-22.725481337521877,Cfa,SouthAm
Tallinn,Estonia,106.0,344510.906273067,3250.1028893685566,0.17666666666666667,24.764063885142217,59.394340825412975,Dfb,Euro
Zhaotong,China,99.0,345067.59049987793,3485.531217170484,0.165,103.71547005517257,27.307387292259254,Cwb,EastAsia
Xingping,China,102.0,345232.7324523926,3384.6346318862015,0.17,108.33268233299576,34.245551524191654,Cwa,EastAsia
Boise,UnitedStates,260.0,345842.61533921957,1330.1639051508446,0.43333333333333335,-116.33091257312266,43.70813657466413,Csa,NorthAm
Chuzhou,China,67.0,346752.55044555664,5175.41120067995,0.11166666666666666,118.35660453723732,32.28749501728276,Cfa,EastAsia
Abadan,Iran,79.0,348413.54315185547,4410.298014580449,0.13166666666666665,48.24815647408957,30.387995926292206,BWh,WestAsia
Hengshui,China,66.0,348778.0820465088,5284.5163946440725,0.11,115.69196799282892,37.7275633702637,BSk,EastAsia
Eindhoven,Netherlands,127.0,349901.16189575195,2755.127259021669,0.21166666666666667,5.548566864019913,51.446282580096046,Cfb,Euro
Montes Claros,Brazil,65.0,350428.75076293945,5391.211550199068,0.10833333333333334,-43.86302698021823,-16.720732841535696,Aw,SouthAm
Indio,UnitedStates,292.0,350694.5893127918,1201.008867509561,0.4866666666666667,-116.37241710927775,33.79565873874026,BWh,NorthAm
Southend-on-Sea,UnitedKingdom,103.0,350780.95726013184,3405.6403617488527,0.17166666666666666,0.6165202891324153,51.59591907338047,Cfb,Euro
Dali,China,106.0,433479.1951751709,4089.4263695770837,0.17666666666666667,100.22126340343273,25.631192154553407,Cwb,EastAsia
Bratislava,Slovakia,117.0,352001.95516204834,3008.5637193337466,0.195,17.189594985689155,48.17947376379353,Cfb,Euro
Ji'an,China,72.0,439537.92983341217,6104.693469908502,0.12,114.95648399494692,27.097950833788293,Cfa,EastAsia
Bergamo,Italy,139.0,353586.0018424988,2543.784185917257,0.23166666666666666,9.6804329749901,45.68262383995835,Cfb,Euro
Taubaté,Brazil,82.0,353958.3594055176,4316.5653586038725,0.13666666666666666,-45.510596896840916,-22.971910489762386,Cfb,SouthAm
Vitebsk,Belarus,81.0,354209.0380859375,4372.95108748071,0.135,30.164951384750392,55.207021012693666,Dfb,Euro
Murcia,Spain,142.0,354693.2265930176,2497.83962389449,0.23666666666666666,-1.1349104333187572,38.014803251324935,BSk,Euro
Toyama,Japan,192.0,355033.1640381813,1849.131062698861,0.32,137.12083611515416,36.699947870863454,Cfa,EastAsia
Vilnius,Lithuania,101.0,355430.06396102905,3519.1095441686043,0.16833333333333333,25.19213623629913,54.695155455971076,Dfb,Euro
Granada,Spain,78.0,355805.7774505615,4561.612531417455,0.13,-3.64177392936363,37.17429532801432,Csa,Euro
Yuncheng,China,84.0,356341.4658126831,4242.160307293847,0.14,110.99043376986108,35.05520185778538,Cwa,EastAsia
Yichun,China,66.0,356856.6615905762,5406.91911500873,0.11,114.39879924007256,27.797948129422387,Cfa,EastAsia
Ogbomosho,Nigeria,67.0,356952.39150714874,5327.647634435056,0.11166666666666666,4.2565689795561905,8.12483365508141,Aw,Africa
Leiyang,China,62.0,357194.84506225586,5761.207178423481,0.10333333333333333,112.86736356175462,26.43041444133466,Cfa,EastAsia
Yongnian,China,138.0,357199.0413980484,2588.3988507104955,0.23,114.51970010855229,36.83025880908625,BSk,EastAsia
Ilesa,Nigeria,71.0,359019.0696525574,5056.606614824752,0.11833333333333333,4.760289746953182,7.622353675388741,Aw,Africa
Xiantao,China,98.0,359050.9883117676,3663.7855950180365,0.16333333333333333,113.45820424929104,30.38193321193306,Cfa,EastAsia
Bournemouth,UnitedKingdom,124.0,359117.1693277359,2896.1062042559347,0.20666666666666667,-2.0407842109920677,50.79534103161814,Cfb,Euro
Pohang-si,SouthKorea,106.0,359501.4280319214,3391.5229059615226,0.17666666666666667,129.3654224810289,36.033576278707756,Dfa,EastAsia
Lixian,China,85.0,360119.79296875,4236.703446691176,0.14166666666666666,111.79582147595684,29.62737504742464,Cfa,EastAsia
Tver,Russia,112.0,360551.375579834,3219.208710534232,0.18666666666666668,35.956822651158404,56.82247661703416,Dfb,Euro
Shuyang,China,99.0,361498.82925224304,3651.503325780233,0.165,118.7838191628601,34.094111694046504,Cwa,EastAsia
Pematang Siantar,Indonesia,78.0,361612.84700775146,4636.062141125019,0.13,99.07831913004284,2.969610541113503,Af,SouthEastAsia
Morogoro,Tanzania,68.0,361662.8515319824,5318.571346058565,0.11333333333333333,37.68039757218938,-6.798731470620938,Aw,Africa
Metro,Indonesia,89.0,362092.2844839096,4068.4526346506696,0.14833333333333334,105.3271258811324,-5.062704628399371,Af,AustralAsia
Kharian,Pakistan,92.0,362910.55459976196,3944.6799413017607,0.15333333333333332,73.90675799799484,32.74578716992172,Cwa,CentralAsia
Kursk,Russia,110.0,362939.29220581055,3299.448110961914,0.18333333333333332,36.19233081972493,51.721128382668354,Dfb,Euro
Thái Nguyên,Vietnam,86.0,363000.08209228516,4220.931187119595,0.14333333333333334,105.83629410489421,21.588888226482073,Cwa,EastAsia
Palm Bay,UnitedStates,533.0,364088.29102155566,683.0924784644571,0.8883333333333333,-80.63192334282695,28.105105661189008,Cfa,NorthAm
Campina Grande,Brazil,64.0,365385.44163513184,5709.147525548935,0.10666666666666667,-35.8936530169364,-7.208837458209887,As,SouthAm
Stockton,UnitedStates,185.0,365617.9698960781,1976.3133507896114,0.30833333333333335,-121.25818310207067,37.98079362320151,BSk,NorthAm
Windhoek,Namibia,80.0,365942.4403915405,4574.280504894256,0.13333333333333333,17.060307473303034,-22.555944240012245,BSh,Africa
Ciudad Bolívar,Venezuela,75.0,366989.4053955078,4893.192071940104,0.125,-63.531144909187645,8.103515089507695,Aw,CentralAm
Dhupguri,India,91.0,367050.15536499023,4033.5181908240684,0.15166666666666667,88.99298061841371,26.577214855326403,Cwa,CentralAsia
Dujiangyan,China,79.0,367471.12896728516,4651.5332780669005,0.13166666666666665,103.65187152777338,30.961271101011956,Cwa,EastAsia
Toulon,France,208.0,368850.91735190153,1773.3217180379881,0.3466666666666667,5.991804615997336,43.20153644422848,Csb,Euro
Qingzhou,China,110.0,370081.7927246094,3364.379933860085,0.18333333333333332,118.51701144393228,36.712340645927725,Cwa,EastAsia
Tamale,Ghana,73.0,370207.21392822266,5071.331697646886,0.12166666666666667,-0.8489267472334678,9.419621362168291,Aw,Africa
Yuxi,China,86.0,370446.3095855713,4307.515227739201,0.14333333333333334,102.54682397062668,24.3541081868163,Cwa,EastAsia
Charlotte,UnitedStates,325.0,370497.0553370528,1139.990939498624,0.5416666666666666,-80.86235168089839,35.21447963019691,Cfa,NorthAm
Xiangcheng,China,118.0,371338.43341064453,3146.9358763613945,0.19666666666666666,114.96559392062439,33.41898138464236,Cwa,EastAsia
Sarajevo,BosniaandHerzegovina,98.0,371884.35776519775,3794.738344542834,0.16333333333333333,18.302396363171386,43.8738137201218,Dfc,Euro
Baoshan,China,121.0,444922.0284423828,3677.0415573750647,0.20166666666666666,99.19206476637046,25.124520971687602,Cwa,EastAsia
Niigata,Japan,171.0,372502.89011383057,2178.3794743498866,0.285,139.1207665776765,37.874296851472366,Cfa,EastAsia
Latakia,Syria,82.0,373264.6777648926,4552.008265425519,0.13666666666666666,35.83631653802172,35.55885739048463,Csa,Euro
Samalut,Egypt,98.0,373326.8143463135,3809.457289248097,0.16333333333333333,30.657131748417843,28.339569575339,BWh,Euro
Ipatinga,Brazil,87.0,373497.4285888672,4293.0738918260595,0.145,-42.59104724853682,-19.49104748215224,Cwa,SouthAm
Wenshui,China,134.0,373548.96743011475,2787.6788614187667,0.22333333333333333,112.15452960213344,37.51833729917992,Dwb,EastAsia
Ōita,Japan,149.0,373607.2303876877,2507.431076427434,0.24833333333333332,131.66765899314672,33.190686563351456,Cfa,EastAsia
Naogaon,Bangladesh,129.0,374563.1601257324,2903.5903885715693,0.215,88.96116705756218,24.80626229843668,Cwa,CentralAsia
Liaoyuan,China,85.0,374650.9009399414,4407.6576581169575,0.14166666666666666,125.13480395580453,42.913899405679786,Dwa,EastAsia
Gaiyara,Iraq,65.0,375037.71775245667,5769.811042345487,0.10833333333333334,43.28041542260834,35.735235379229735,Csa,CentralAsia
Singaraja,Indonesia,85.0,375601.12127685547,4418.836720904182,0.14166666666666666,115.08208126734051,-8.146803962529209,Am,AustralAsia
Quzhou,China,143.0,432638.45587158203,3025.4437473537205,0.23833333333333334,118.86982443270082,28.958739488811872,Cfa,EastAsia
Ivanovo,Russia,96.0,376824.127784729,3925.251331090927,0.16,41.00001271705611,56.953810241086536,Dfb,Euro
Xinmi,China,101.0,377688.3263206482,3739.4883794123584,0.16833333333333333,113.38703787569438,34.489374503673545,Cwa,EastAsia
Kaliningrad,Russia,101.0,377723.27186870575,3739.834374937681,0.16833333333333333,20.497701812360834,54.74551854505255,Cfb,Euro
Heyuan,China,62.0,377910.7381286621,6095.334485946163,0.10333333333333333,114.69445090668437,23.72831549686088,Cfa,EastAsia
Subang,Indonesia,125.0,378143.87509155273,3025.151000732422,0.20833333333333334,107.82777894149821,-6.506276030332417,Am,AustralAsia
Ranghulu,China,98.0,378743.47233581543,3864.729309549137,0.16333333333333333,124.86146602697845,46.61630716325165,Dwa,EastAsia
East London,SouthAfrica,111.0,379150.45410728455,3415.769856822383,0.185,27.83067608216361,-32.97787816665116,Cfb,Africa
Fuqing,China,69.0,379236.10496902466,5496.175434333691,0.115,119.34921142006107,25.701142519489213,Cfa,EastAsia
Shihezi,China,82.0,379563.33442115784,4628.821151477535,0.13666666666666666,86.04992169911316,44.30849065507685,BWk,CentralAsia
Resistencia,Argentina,91.0,379825.8938026428,4173.910920908163,0.15166666666666667,-58.99179441115863,-27.446746505192635,Cfa,SouthAm
Arnhem,Netherlands,147.0,380369.92871809006,2587.550535497211,0.245,5.884796483058401,51.87899971267685,Cfb,Euro
Liège,Belgium,158.0,381673.1478881836,2415.652834735339,0.2633333333333333,5.519067743362298,50.62532645973543,Cfb,Euro
Jingdezhen,China,84.0,382304.78370666504,4551.247425079346,0.14,117.21009901583385,29.30784830933803,Cfa,EastAsia
Ife,Nigeria,73.0,382422.63621520996,5238.666249523424,0.12166666666666667,4.558064316149337,7.485221395396062,Aw,Africa
Taixing,China,91.0,382805.4522705078,4206.653321653932,0.15166666666666667,120.11086302670957,32.198366457760095,Cfa,EastAsia
Tepic,Mexico,62.0,383493.92584609985,6185.385900743546,0.10333333333333333,-104.87651305387068,21.49045393628772,Csb,NorthAm
Vinnytsia,Ukraine,82.0,383835.9210205078,4680.925866103754,0.13666666666666666,28.498469251135187,49.258703068450885,Dfb,Euro
Nuevo Laredo,Mexico,98.0,384851.57996177673,3927.0569383854768,0.16333333333333333,-99.5571129356017,27.458815305954985,BSh,NorthAm
Lu'an,China,73.0,384892.5005187988,5272.500007106833,0.12166666666666667,116.5093320447699,31.74982482938592,Cfa,EastAsia
Santiago del Estero,Argentina,84.0,385153.5418205261,4585.161212149121,0.14,-64.24382926228738,-27.743310087425787,BSh,SouthAm
Jizzax,Uzbekistan,93.0,385490.1870727539,4145.055774975848,0.155,67.85409569796019,40.13246382725944,Csa,CentralAsia
Ciudad del Este,Paraguay,85.0,385640.060546875,4536.941888786765,0.14166666666666666,-54.68307250727876,-25.493275720539366,Cfa,SouthAm
Suqian,China,130.0,385813.33335113525,2967.7948719318097,0.21666666666666667,118.28765211686078,33.93095370697091,Cwa,EastAsia
Daqing,China,102.0,386686.0431442261,3791.039638668883,0.17,125.10580462641009,46.578751359513284,Dwa,EastAsia
Grand Rapids,UnitedStates,309.0,387107.4496645257,1252.7749180081737,0.515,-85.58029255351705,42.94958378709463,Dfa,NorthAm
Heze,China,125.0,387659.3493041992,3101.274794433594,0.20833333333333334,115.485320205846,35.24967208938327,Cwa,EastAsia
Palma de Mallorca,Spain,111.0,388089.56577301025,3496.3023943514436,0.185,2.6959582765756895,39.58163959608362,Csb,Euro
Rochester,UnitedStates,315.0,463742.74287366867,1472.1991837259322,0.525,-77.63953411860066,43.076113074578,Dfa,NorthAm
Lipetsk,Russia,132.0,389254.1466207504,2948.8950501572003,0.22,39.620892412914955,52.60761771358678,Dfb,Euro
Butembo,DemocraticRepublicoftheCongo,67.0,389835.4031600952,5818.43885313575,0.11166666666666666,29.30277613955354,0.11805405718997573,Cfb,Africa
Kai [Kofu],Japan,194.0,390244.43338012695,2011.5692442274585,0.3233333333333333,138.5657620546967,35.643139181723704,Cfa,EastAsia
Seremban,Malaysia,135.0,390883.56371307373,2895.4338052820276,0.225,101.93309406978302,2.6913134093353244,Af,SouthEastAsia
São José do Rio Preto,Brazil,92.0,391582.63248825073,4256.332961828813,0.15333333333333332,-49.370778319113,-20.794302664319087,Cwa,SouthAm
Korba,India,63.0,391898.2197113037,6220.606662084186,0.105,82.7219901150134,22.36006605940383,Aw,WestAsia
Chonburi,Thailand,153.0,392466.77909851074,2565.14234704909,0.255,101.00745326906014,13.35954887551232,Aw,SouthEastAsia
Zhoukou,China,70.0,392625.27227783203,5608.932461111886,0.11666666666666667,114.6384830613905,33.63629439007754,Cwa,EastAsia
Fukuyama,Japan,188.0,393501.30726385117,2093.092059914102,0.31333333333333335,133.29925461251673,34.471106296492025,Cfa,EastAsia
Shangrao,China,86.0,394396.5007171631,4586.005822292594,0.14333333333333334,117.93467344021988,28.44505389944734,Cfa,EastAsia
Aktobe,Kazakhstan,104.0,394478.2410583496,3793.0600101764385,0.17333333333333334,57.23969969822226,50.29689720877234,Dfa,CentralAsia
Likasi,DemocraticRepublicoftheCongo,66.0,394558.0255241394,5978.1519018809,0.11,26.747112645866544,-10.99968408131109,Aw,Africa
Vientiane,Laos,116.0,395764.5684890747,3411.7635214575407,0.19333333333333333,102.62469867270198,17.983833870260035,Aw,EastAsia
Celaya,Mexico,65.0,395806.8228149414,6089.335735614483,0.10833333333333334,-100.79539590036252,20.526652693416818,Cwa,NorthAm
Colorado Springs,UnitedStates,242.0,396290.124502182,1637.5624979429008,0.4033333333333333,-104.8001817927783,38.91302388832788,BSk,NorthAm
Pabna,Bangladesh,116.0,397464.63848876953,3426.419297316979,0.19333333333333333,89.26546529008583,24.02355545186201,Aw,CentralAsia
Antakya,Turkey,83.0,397544.43994140625,4789.692047486822,0.13833333333333334,36.182427103300334,36.24022576350765,Csa,Euro
Volta Redonda,Brazil,101.0,397591.65561032295,3936.551045646762,0.16833333333333333,-44.118742195624016,-22.519980655233393,Cfb,SouthAm
Caxias do Sul,Brazil,88.0,397598.9004936218,4518.169323791157,0.14666666666666667,-51.19737599353126,-29.16070991719325,Cfb,SouthAm
Xinyang,China,81.0,399077.48403930664,4926.882519003786,0.135,114.07303095138577,32.12895382112228,Cfa,EastAsia
Yining/Qulja,China,72.0,401026.5014343262,5569.812519921197,0.12,81.33935759342121,43.92214575214651,Dfb,CentralAsia
Osh,Kyrgyzstan,73.0,401135.2155761719,5495.002953098245,0.12166666666666667,72.81839348722767,40.526694796440296,BSk,CentralAsia
Petrolina,Brazil,90.0,401275.33903312683,4458.614878145853,0.15,-40.501868029245756,-9.370001233148953,BSh,SouthAm
Cooch Behar,India,78.0,401923.96966552734,5152.871405968299,0.13,89.43397244399232,26.357034290507347,Cwa,CentralAsia
Chandrapur,India,73.0,530870.4270019531,7272.197630163741,0.12166666666666667,79.29354303149826,19.973738086364914,Aw,WestAsia
Lobito,Angola,62.0,403077.2750854492,6501.246372345955,0.10333333333333333,13.56225655492518,-12.392173784091602,BWh,Africa
Minna,Nigeria,74.0,403554.31640625,5453.4367081925675,0.12333333333333334,6.53365577357413,9.594612650801047,Aw,Africa
Manado,Indonesia,91.0,403584.7854118347,4434.997641888293,0.15166666666666667,124.86816165008993,1.4830231983133124,Af,SouthEastAsia
Indramayu,Indonesia,142.0,404173.186003685,2846.290042279472,0.23666666666666666,108.31405602782317,-6.397744171290376,Am,AustralAsia
Leshan,China,77.0,404314.37870788574,5250.836087115399,0.12833333333333333,103.71941220014475,29.586444360365455,Cwa,EastAsia
Port of Spain,TrinidadandTobago,142.0,404409.3053717613,2847.9528547307136,0.23666666666666666,-61.42943672097553,10.658947735913124,Am,CentralAm
Kinokawa [Wakayama],Japan,173.0,404725.26514452416,2339.4523996793305,0.28833333333333333,135.26439122558932,34.192355751316335,Cfa,EastAsia
La Serena,Chile,104.0,405911.95291519165,3902.9995472614582,0.17333333333333334,-71.24799250352703,-29.968348623699196,BWk,SouthAm
Zhumadian,China,67.0,405958.8928833008,6059.0879534821015,0.11166666666666666,114.03635131463582,32.965482051989326,Cfa,EastAsia
Strasbourg,France,127.0,406840.1648054123,3203.4658646095454,0.21166666666666667,7.636362235298648,48.594480554334,Cfb,Euro
Novokuznetsk,Russia,152.0,407259.0651473999,2679.3359549171046,0.25333333333333335,87.18518784015866,53.775111391910144,Dfb,CentralAsia
Beibei,China,73.0,407827.569190979,5586.679030013411,0.12166666666666667,106.43043343344263,29.811168140610373,Cwa,EastAsia
Bloemfontein,SouthAfrica,104.0,408353.8631286621,3926.4794531602124,0.17333333333333334,26.222235451768753,-29.137482882258453,BSk,Africa
Pattoki,Pakistan,65.0,409086.32904815674,6293.635831510103,0.10833333333333334,73.88905953279678,31.097735391653796,BWh,CentralAsia
Tsakane,SouthAfrica,69.0,409672.5226492882,5937.282936946205,0.115,28.411114224370753,-26.319416859301224,Cwb,Africa
Longyan,China,72.0,410404.147064209,5700.057598114014,0.12,117.00666836825066,25.08836593614059,Cfa,EastAsia
Bamenda,Cameroon,64.0,411202.95066833496,6425.046104192734,0.10666666666666667,10.146698026913839,5.958239397516879,Am,Africa
Bahawalpur,Pakistan,79.0,412812.0563812256,5225.469068116779,0.13166666666666665,71.68304054631905,29.385856589547608,BWh,CentralAsia
Sanmenxia,China,82.0,413200.3692626953,5039.028893447504,0.13666666666666666,111.16825513203669,34.75386971086109,BSk,EastAsia
Suining,China,128.0,667162.5929260254,5212.207757234573,0.21333333333333335,105.5927797869761,30.516677329372015,Cwa,EastAsia
Dharmapuri,India,80.0,413753.0832824707,5171.913541030884,0.13333333333333333,78.15077975318671,12.15634950069215,Aw,WestAsia
Porto Velho,Brazil,87.0,413899.30574035645,4757.463284371913,0.145,-63.881308982875076,-8.769296660376687,Am,SouthAm
Geneva,Switzerland,85.0,414323.31774902344,4874.391973517922,0.14166666666666666,6.151527445777804,46.259589367201556,Cfb,Euro
Sanandaj,Iran,63.0,414352.28231430054,6577.020354195247,0.105,47.01980920365351,35.29937242804878,Dsa,CentralAsia
Kendari,Indonesia,90.0,415040.60178375244,4611.562242041694,0.15,122.50601549764288,-4.008808638388224,Am,SouthEastAsia
Ogden,UnitedStates,275.0,415091.37913942337,1509.4231968706304,0.4583333333333333,-111.92748757800722,41.17531591523348,Dsa,NorthAm
Cuenca,Ecuador,78.0,415124.50370788574,5322.109021895971,0.13,-78.97573622932656,-2.890604031099735,Cfb,CentralAm
Luhansk,Ukraine,114.0,415351.22980451584,3643.43184039049,0.19,39.2977272230094,48.55360694931242,Dfa,Euro
Nagapattinam,India,116.0,415570.844833374,3582.5072830463278,0.19333333333333333,79.8292843587462,10.701472914894588,Aw,WestAsia
Cheboksary,Russia,102.0,418529.6408443451,4103.231772983775,0.17,47.24689028176451,56.0800545359854,Dfb,CentralAsia
Hue,Vietnam,82.0,419391.2849121094,5114.527864781821,0.13666666666666666,107.58181772475017,16.47860941769323,Cfa,EastAsia
Edendale,SouthAfrica,126.0,419674.82611083984,3330.7525881812685,0.21,30.359496864570332,-29.642311523062016,Cfb,Africa
Mazatlán,Mexico,85.0,420324.8812599182,4944.998603057861,0.14166666666666666,-106.39962320759788,23.283724494855388,As,NorthAm
Kupang,Indonesia,71.0,420557.1421775818,5923.340030670166,0.11833333333333333,123.63333564904269,-10.166957196919885,Aw,AustralAsia
Bologna,Italy,96.0,421341.9565048218,4388.978713591893,0.16,11.336751738455282,44.485722214594695,Cfb,Euro
Qujing,China,101.0,423122.01137161255,4189.32684526349,0.16833333333333333,103.80352411322615,25.53529620093198,Cwb,EastAsia
Middlesbrough,UnitedKingdom,205.0,423574.1917371154,2066.2155694493435,0.3416666666666667,-1.230970291773423,54.57582235070536,Cfb,Euro
Lumajang,Indonesia,160.0,424161.1477584839,2651.007173490524,0.26666666666666666,113.21719805661941,-8.169007030041783,Aw,AustralAsia
Probolinggo,Indonesia,102.0,424343.6752319336,4160.232110116996,0.17,113.18501742304694,-7.777663462646501,Aw,AustralAsia
Kemerovo,Russia,189.0,424489.8200893402,2245.977884070583,0.315,86.06777517674216,55.379919927251265,Dfb,CentralAsia
Barisal,Bangladesh,62.0,424734.4372558594,6850.555439610635,0.10333333333333333,90.34582794636259,22.70309574962073,Aw,CentralAsia
Moulvibazar,Bangladesh,125.0,425080.76736831665,3400.646138946533,0.20833333333333334,91.76271642666902,24.43805387875208,Cwa,CentralAsia
Qarchak,Iran,61.0,426096.4340515137,6985.187443467437,0.10166666666666667,51.615960299176386,35.38165310706853,BWk,CentralAsia
Annaba,Algeria,82.0,426276.9205560684,5198.4990311715665,0.13666666666666666,7.718480289066378,36.826002881628526,Csa,Euro
Phuket,Thailand,115.0,426293.03129577637,3706.895924311099,0.19166666666666668,98.35759870658049,7.896008389630739,Am,SouthEastAsia
Coventry,UnitedKingdom,126.0,428130.63862228394,3397.862211287968,0.21,-1.4872313705066313,52.46829776597565,Cfb,Euro
Kharupetia,India,190.0,428561.67557525635,2255.5877661855598,0.31666666666666665,92.12702628260568,26.562551405567614,Cwa,CentralAsia
Santiago de Cuba,Cuba,89.0,429606.96298419684,4827.044527912324,0.14833333333333334,-75.82040367636573,20.0392665143544,Aw,CentralAm
Zoucheng,China,116.0,430614.8196411133,3712.19672104408,0.19333333333333333,116.94660258582688,35.38324381170432,Cwa,EastAsia
Haifa,Israel,130.0,430883.3491821289,3314.487301400992,0.21666666666666667,35.0849267304538,32.79607512616496,Csa,Euro
Kebumen,Indonesia,115.0,431695.42573547363,3753.873267264988,0.19166666666666668,109.60795141609246,-7.65255650610328,Af,AustralAsia
Kitchener,Canada,195.0,431698.1192779541,2213.8365091177134,0.325,-80.56367752406825,43.410996032573706,Dfb,NorthAm
Santa Fe,Argentina,74.0,432242.13470458984,5841.109928440404,0.12333333333333334,-60.70751623416614,-31.610210132707266,Cfa,SouthAm
Kaiping,China,98.0,432845.6409378052,4416.7922544674,0.16333333333333333,112.71965531548707,22.413706607567786,Cwa,EastAsia
Bryansk,Russia,152.0,433820.86897420883,2854.0846643040054,0.25333333333333335,34.32591025960631,53.247259514593765,Dfb,Euro
Jhelum,Pakistan,70.0,435432.1336669922,6220.459052385602,0.11666666666666667,73.71855734433272,32.94632279169376,Cwa,CentralAsia
Mariupol,Ukraine,162.0,436133.06227874756,2692.1793967823924,0.27,37.58860793551812,47.13374603134757,Dfa,Euro
Nantes,France,144.0,436853.05865478516,3033.7017962137857,0.24,-1.5406036666130354,47.21548459289845,Cfb,Euro
Stavropol,Russia,126.0,437252.47308278084,3470.257722879213,0.21,42.00761132136568,45.08698460293745,Cfa,Euro
Ndola,Zambia,91.0,439792.8328704834,4832.8882733020155,0.15166666666666667,28.635437038446067,-12.985099066209377,Cwa,Africa
Ankang,China,113.0,440669.15243148804,3899.7270126680355,0.18833333333333332,108.99119092077326,32.705962564738705,Cwa,EastAsia
Raleigh,UnitedStates,307.0,441063.8067073822,1436.6899241282808,0.5116666666666667,-78.68302314356231,35.84103186703708,Cfa,NorthAm
Seeb,Oman,103.0,441275.8644256592,4284.231693453002,0.17166666666666666,58.14245967678995,23.627240053336134,BWh,WestAsia
Palakkad,India,82.0,441346.8161010742,5382.278245135051,0.13666666666666666,76.66880651159339,10.78095944228581,Aw,WestAsia
Kuching,Malaysia,140.0,441553.934425354,3153.956674466814,0.23333333333333334,110.32637657599594,1.5031323363678084,Af,SouthEastAsia
San Juan,Argentina,98.0,441985.8949279785,4510.060152326311,0.16333333333333333,-68.52100269769612,-31.53964222495587,BWk,SouthAm
Tulsa,UnitedStates,398.0,442252.69080684334,1111.1876653438276,0.6633333333333333,-95.87514496945184,36.105168716023734,Cfa,NorthAm
Mbeya,Tanzania,92.0,442682.7041244507,4811.768523091855,0.15333333333333332,33.49750772646154,-8.910551835555442,Cwa,Africa
Kagoshima,Japan,141.0,442952.82556295395,3141.5094011557017,0.235,130.51529528370975,31.567176465993516,Cfa,EastAsia
Las Palmas de Gran Canaria,Spain,112.0,443141.22283935547,3956.618061065674,0.18666666666666668,-15.488187338919401,28.052237386502476,Csb,Euro
Shengzhou,China,93.0,510097.9158782959,5484.923826648343,0.155,120.85960086798954,29.564990574628236,Cfa,EastAsia
Tabuk,SaudiArabia,70.0,443344.57946014404,6333.493992287772,0.11666666666666667,36.56724550389913,28.38866302866277,BWh,Euro
Utrecht,Netherlands,124.0,445244.7846374512,3590.6837470762193,0.20666666666666667,5.09132962646166,52.01466231732563,Cfb,Euro
Thoothukudi,India,92.0,445956.0775756836,4847.348669300909,0.15333333333333332,78.13402039906381,8.78500340161375,As,WestAsia
Yangjiang,China,85.0,445967.6678581238,5246.678445389692,0.14166666666666666,111.96039622557005,21.865274602269622,Cwa,EastAsia
Xinyu,China,86.0,446032.1842956543,5186.420747623887,0.14333333333333334,114.96364533755383,27.83387263668602,Cfa,EastAsia
Laiwu,China,159.0,446126.68048095703,2805.828179125516,0.265,117.65391313508547,36.25482661863914,Dwa,EastAsia
Melaka City,Malaysia,168.0,446718.54110336304,2659.038935139066,0.28,102.26530240706663,2.2560053334539347,Af,SouthEastAsia
Mito,Japan,196.0,447269.74863767624,2281.988513457532,0.32666666666666666,140.48920287011424,36.43830016725316,Cfa,EastAsia
Zhuji,China,97.0,447567.27866363525,4614.095656326137,0.16166666666666665,120.21472384849162,29.715345260587267,Cfa,EastAsia
Malatya,Turkey,82.0,447744.9584070444,5460.304370817615,0.13666666666666666,38.27358548580939,38.351109636321056,Dsa,Euro
Deyang,China,80.0,448080.34368896484,5601.004296112061,0.13333333333333333,104.35593645928995,31.13234249102313,Cwa,EastAsia
Ramadi,Iraq,79.0,448265.65018463135,5674.248736514321,0.13166666666666665,43.31037051021865,33.43971137135933,BWh,WestAsia
Laiyang,China,137.0,450226.2224121094,3286.3227913292653,0.22833333333333333,120.60890722934583,36.91346169398254,Cwa,EastAsia
Kikwit,DemocraticRepublicoftheCongo,67.0,450273.9988708496,6720.507445833577,0.11166666666666666,18.808754037955918,-5.047680205822466,Aw,Africa
Van,Turkey,71.0,451519.376373291,6359.427836243535,0.11833333333333333,43.37351521467818,38.507048281167414,Dsb,CentralAsia
Meizhou,China,118.0,451529.97170352936,3826.525183928215,0.19666666666666666,116.10834718233619,24.302734495342815,Cfa,EastAsia
兖州区,China,116.0,451559.64028930664,3892.7555197354022,0.19333333333333333,116.90404306737686,35.580863753955306,Cwa,EastAsia
Baguio,Philippines,72.0,451843.81800842285,6275.608583450317,0.12,120.60088278712482,16.42169590111102,Am,SouthEastAsia
Katsina,Nigeria,83.0,452017.42960357666,5445.993127753935,0.13833333333333334,7.630177172436076,12.96889722433162,BSh,Africa
General Santos,Philippines,89.0,452059.71823501587,5079.322676797931,0.14833333333333334,125.15631516334506,6.11296997738376,Af,SouthEastAsia
Samastipur,India,93.0,452409.7062616348,4864.620497436934,0.155,85.78342348127048,25.896107207825093,Cwa,CentralAsia
Sanya,China,118.0,452525.16020202637,3834.9589847629354,0.19666666666666666,109.48335757572742,18.290988099908926,Aw,EastAsia
Tonghua,China,61.0,453410.27044677734,7432.9552532258585,0.10166666666666667,125.90515302303983,41.72080721525184,Dwa,EastAsia
Kasur,Pakistan,87.0,454468.5828857422,5223.7768147786455,0.145,74.43946138089645,31.14309314025138,BSh,CentralAsia
Jinzhong,China,66.0,454617.2161254883,6888.139638264974,0.11,112.72623615746079,37.67660669756023,BSk,EastAsia
Barkhada,Bangladesh,137.0,455466.6421471834,3324.5740302714116,0.22833333333333333,89.10750628306597,23.88541008220318,Aw,CentralAsia
Leipzig,Germany,163.0,455581.3497848511,2794.9776060420313,0.27166666666666667,12.403305447081427,51.31261992053419,Cfb,Euro
Pachuca,Mexico,90.0,455632.81123542786,5062.586791504754,0.15,-98.72128274693726,20.071424550722416,BSk,NorthAm
Tula,Russia,131.0,456156.5581970215,3482.111131274973,0.21833333333333332,37.57711322227506,54.175058935587266,Dfb,Euro
Irapuato,Mexico,62.0,456252.0856323242,7358.904606972971,0.10333333333333333,-101.37787298218832,20.69052755302724,Cwa,NorthAm
Jincheng,China,72.0,559621.141784668,7772.515858120389,0.12,112.85856013854512,35.51094145470414,Dwa,EastAsia
Belfast,UnitedKingdom,163.0,457659.4602012634,2807.7267497010025,0.27166666666666667,-6.046869389046747,54.578338222057845,Cfb,Euro
Jacksonville,UnitedStates,417.0,458081.17319298955,1098.5160028608861,0.695,-81.69244699095441,30.290685309054126,Cfa,NorthAm
Xinxing,China,114.0,601310.438369751,5274.65296815571,0.19,130.93421959148688,45.794975415676845,Dwa,EastAsia
Wuzhou,China,75.0,460722.5074558258,6142.966766077678,0.125,111.2852371433737,23.482286799491025,Cfa,EastAsia
Chișinău,Moldova,120.0,460760.8936944008,3839.6741141200064,0.2,28.831460106493072,47.03661561323867,Dfb,Euro
Kashgar,China,66.0,460832.0925292969,6982.3044322620735,0.11,76.00564537910478,39.47000473954081,BWk,CentralAsia
Pokhariya,Nepal,123.0,460929.2215576172,3747.3920451838794,0.205,84.8299225734549,27.060193772194022,Cwa,CentralAsia
Ryazan,Russia,135.0,462836.55557250977,3428.418930166739,0.225,39.743560988390286,54.61245852959482,Dfb,Euro
Al Ghubra,Oman,103.0,464554.9860305786,4510.242582821152,0.17166666666666666,58.44445376250405,23.58321888828679,BWh,WestAsia
Benghazi,Libya,160.0,464916.06311035156,2905.725394439697,0.26666666666666666,20.130385301687244,32.08375649369809,BSh,Euro
Tongling,China,111.0,464942.36921310425,4188.669992910849,0.185,117.78999826299732,30.89711499535705,Cfa,EastAsia
Kahramanmaraş,Turkey,76.0,464945.22029685974,6117.700267063944,0.12666666666666668,36.94665426792678,37.55406718683462,Csa,Euro
Cheonan-si,SouthKorea,138.0,465352.4723510742,3372.119364862857,0.23,127.1154370183702,36.809555511305156,Dwa,EastAsia
Allentown,UnitedStates,391.0,465504.4420682192,1190.5484451872614,0.6516666666666666,-75.37374753472477,40.68389064530959,Cfa,NorthAm
Edinburgh,UnitedKingdom,123.0,465555.7451181412,3785.0060578710663,0.205,-3.050520232590552,55.85094215594388,Cfb,Euro
Lauiyah Nandangarh,India,135.0,466053.4279785156,3452.2476146556714,0.225,84.30925442841148,26.987595953783238,Cwa,CentralAsia
Zhoushan,China,107.0,467378.2750854492,4368.021262480834,0.17833333333333334,122.18819988373313,30.00181954998593,Cfa,EastAsia
Desouk,Egypt,82.0,467437.3589668274,5700.455597156431,0.13666666666666666,30.60785060043582,31.158987041922213,BWh,Euro
Maringá,Brazil,113.0,467831.3703918457,4140.100622936688,0.18833333333333332,-51.95984562511232,-23.435664765142963,Cfa,SouthAm
Matamoros,Mexico,103.0,467976.7132463455,4543.463235401413,0.17166666666666666,-97.53538317608027,25.849538533210946,Cfa,NorthAm
Nha Trang,Vietnam,98.0,468627.4540786743,4781.912796721166,0.16333333333333333,109.135469515965,12.24521121285852,Aw,SouthEastAsia
Mykolaiv,Ukraine,125.0,469016.9503289461,3752.135602631569,0.20833333333333334,32.02514642417778,47.001268310256336,Dfa,Euro
Fergana,Uzbekistan,150.0,469109.9804992676,3127.399869995117,0.25,71.76630602955254,40.43852631950458,BSk,CentralAsia
Yanji,China,66.0,469216.56842041016,7109.34194576379,0.11,129.46779561117614,42.923470508319454,Dwb,EastAsia
Tokushima,Japan,388.0,469452.8973479271,1209.9301478039358,0.6466666666666666,134.43397835626493,34.09129673816203,Cfa,EastAsia
Juba,SouthSudan,75.0,469565.93981933594,6260.879197591145,0.125,31.567222130668977,4.850174163352371,Aw,Africa
Matsuyama,Japan,185.0,470051.8815879822,2540.8209815566606,0.30833333333333335,132.79291476426138,33.79320311218082,Cfa,EastAsia
Ado Ekiti,Nigeria,81.0,470846.22286987305,5812.916331726828,0.135,5.242865069672261,7.637053132079448,Aw,Africa
Chiayi,Taiwan,93.0,472171.5328216553,5077.113256146831,0.155,120.43748754614964,23.46857246614134,Aw,EastAsia
Tétouan,Morocco,70.0,472798.61291503906,6754.265898786272,0.11666666666666667,-5.344009452307122,35.57793618100252,Csa,Euro
Andijan,Uzbekistan,161.0,474328.8672218323,2946.142032433741,0.2683333333333333,72.30602104116046,40.752856287558764,BSk,CentralAsia
Chaoyang,China,75.0,474460.11267089844,6326.134835611979,0.125,120.42776185755486,41.57352961554935,Dwa,EastAsia
Haripur,Pakistan,77.0,474638.09031295776,6164.131043025425,0.12833333333333333,72.91573541343745,33.98449804237531,Cwa,CentralAsia
Yuhuan,China,136.0,475379.5911064148,3495.4381699001087,0.22666666666666666,121.27009269302843,28.175993392417602,Cfa,EastAsia
Jamalpur,Bangladesh,129.0,478866.75299072266,3712.1453720211057,0.215,89.97779153176013,24.964725084149777,Aw,CentralAsia
Leicester,UnitedKingdom,122.0,481229.55741882324,3944.5045690067477,0.20333333333333334,-1.0941695512411462,52.618867794856506,Cfb,Euro
Kakinada,India,73.0,484177.2718963623,6632.565368443319,0.12166666666666667,82.23180259513995,16.96048015134948,Aw,WestAsia
Sa Dec City,Vietnam,127.0,484197.6136455536,3812.579635004359,0.21166666666666667,105.88110469246735,10.25052045996215,Aw,SouthEastAsia
Cardiff,UnitedKingdom,166.0,484226.77252459526,2917.0287501481644,0.27666666666666667,-3.1371835523782847,51.62582548583521,Cfb,Euro
Hisar,India,70.0,484415.02154541016,6920.21459350586,0.11666666666666667,75.74678594826118,29.15537434408483,BSh,CentralAsia
Bandar Abbas,Iran,78.0,484670.23223876953,6213.720926138071,0.13,56.2925083640221,27.221419964234247,BWh,WestAsia
Itajaí,Brazil,119.0,486478.82922554016,4088.057388449917,0.19833333333333333,-48.67002012307882,-26.95648490999965,Cfa,SouthAm
Mansa Nagar,India,94.0,487224.929649353,5183.243932439926,0.15666666666666668,85.9397439614639,23.77091099814928,Cwa,CentralAsia
Songyuan,China,111.0,487549.769405365,4392.340264913199,0.185,124.83104323534774,45.14188897219383,Dwa,EastAsia
Tengzhou,China,110.0,488040.1228942871,4436.728389948064,0.18333333333333332,117.15929074234269,35.08004212973762,Cwa,EastAsia
Ulyanovsk,Russia,164.0,488244.7627296448,2977.102211766127,0.2733333333333333,48.35998037741073,54.29638016976577,Dfb,CentralAsia
